{
  "questions": [
    {
      "question": "Where can you find the only surviving Wonder of the Ancient World, originally built in 2560 BC?",
      "answer": { "label": "Great Pyramid of Giza, Egypt", "lat": 29.9792, "lng": 31.1342 },
      "context": "This ancient pyramid is the largest of those in the Giza pyramid complex and was thought for a long time to be a tomb for Pharaoh Khufu."
    },
    {
      "question": "Which modern architectural marvel, completed in 2010, holds the title of the tallest building in the world?",
      "answer": { "label": "Burj Khalifa, Dubai", "lat": 25.1972, "lng": 55.2744 },
      "context": "Standing over 828 meters high, this skyscraper is a symbol of the advancement in architectural engineering."
    },
    {
      "question": "Which iconic dark tourism site is located in Poland and was the largest of its kind used during World War II?",
      "answer": { "label": "Auschwitz-Birkenau Memorial and Museum, Oświęcim", "lat": 50.0358, "lng": 19.1783 },
      "context": "This former concentration camp is now a memorial and museum, preserving the memory of the Holocaust."
    },
    {
      "question": "Which famous museum opened its doors to the public in 1793, and is located in the former royal palace in France?",
      "answer": { "label": "Louvre Museum, Paris", "lat": 48.8606, "lng": 2.3376 },
      "context": "Home to the Mona Lisa, this museum is the world's largest art museum and a historic monument."
    },
    {
      "question": "Which capital city in South America was founded in 1541 and is famous for its presidential palace known as La Moneda?",
      "answer": { "label": "Santiago, Chile", "lat": -33.4489, "lng": -70.6693 },
      "context": "Located in the central valley, this city played a key role during the colonial period and continues to be the cultural and political center of Chile."
    }
  ]
}