{
  "questions": [
    {
      "question": "Where is the famous architectural marvel, completed in 2010, that stands as the tallest man-made structure on Earth?",
      "answer": { "label": "Burj Khalifa, Dubai, United Arab Emirates", "lat": 25.1972, "lng": 55.2744 },
      "context": "At a height of 828 meters, this skyscraper was designed by Adrian Smith and features an observation deck that offers breathtaking views of the city and Persian Gulf."
    },
    {
      "question": "Which UNESCO World Heritage Site in Italy is known for its well-preserved remains of a Roman city destroyed by a volcanic eruption in 79 AD?",
      "answer": { "label": "Pompeii, Italy", "lat": 40.7485, "lng": 14.4846 },
      "context": "This site gives an extraordinary snapshot of Roman life, frozen at the moment it was buried under volcanic ash from Mount Vesuvius."
    },
    {
      "question": "What is the location of the large-scale architectural installation in Spain, known for its intricate mosaics and unique blends of nature and design, by architect Antoni Gaudí?",
      "answer": { "label": "Park Güell, Barcelona, Spain", "lat": 41.4145, "lng": 2.1527 },
      "context": "Originally planned as a garden city, this creation by Gaudí is now a public park and a UNESCO World Heritage Site, reflecting his artistic plenitude."
    },
    {
      "question": "Which ancient Roman amphitheater, considered one of the greatest works of Roman engineering, can be found in the center of Rome?",
      "answer": { "label": "Colosseum, Rome, Italy", "lat": 41.8902, "lng": 12.4922 },
      "context": "This iconic structure could hold 50,000 spectators and hosted gladiatorial contests, animal hunts, and even mock naval battles."
    },
    {
      "question": "Where can you find the stone-carved treasury of a city known for its archaeological significance, which served as the capital of the Nabataean Kingdom?",
      "answer": { "label": "Petra, Jordan", "lat": 30.3285, "lng": 35.4444 },
      "context": "Famed for its rock-cut architecture and water conduit system, this city is also known as the 'Rose City' due to the color of the stone."
    }
  ]
}