```json
{
  "questions": [
    {
      "question": "Which UNESCO site, known for its breathtaking rock-hewn churches and a key pilgrimage destination, is situated in the Amhara Region of Ethiopia?",
      "answer": { "label": "Lalibela, Ethiopia", "lat": 12.03, "lng": 39.05 },
      "context": "These medieval structures, dating back to the Zagwe dynasty in the 12th century, are carved entirely from solid rock."
    },
    {
      "question": "Identify the iconic modern architectural marvel designed by Zaha Hadid, located in Baku, Azerbaijan, known for its flowing curves and asymmetrical shapes?",
      "answer": { "label": "Heydar Aliyev Center, Baku", "lat": 40.39, "lng": 49.87 },
      "context": "Completed in 2012, this cultural center defies traditional architecture with its fluid form, symbolizing Azerbaijan's forward-looking culture."
    },
    {
      "question": "Which historical battle site, located in Belgium, marked the end of Napoleon Bonaparte's rule in 1815?",
      "answer": { "label": "Waterloo, Belgium", "lat": 50.68, "lng": 4.41 },
      "context": "On June 18, 1815, the Battle of Waterloo saw the Duke of Wellington lead the Seventh Coalition to victory against Napoleon."
    },
    {
      "question": "What is the name of the famous Paris museum, home to Leonardo da Vinci's 'Mona Lisa,' located on the Right Bank of the Seine River?",
      "answer": { "label": "Louvre Museum, Paris", "lat": 48.86, "lng": 2.34 },
      "context": "Originally a royal palace, the museum became public in 1793 and is now the world's largest art museum and historic monument in Paris."
    },
    {
      "question": "Identify the ancient ruins in Turkey, considered one of the largest and best-preserved ancient cities, known for its Library of Celsus and an impressive amphitheater.",
      "answer": { "label": "Ephesus, Turkey", "lat": 37.94, "lng": 27.34 },
      "context": "Once a major Roman city in Asia Minor, Ephesus was famed for the Temple of Artemis, one of the Seven Wonders of the Ancient World."
    }
  ]
}
```