{
  "questions": [
    {
      "question": "Which famous modern architectural marvel in the Middle East is known for its enormous man-made archipelago shaped like a palm?",
      "answer": { "label": "Palm Jumeirah, Dubai", "lat": 25.112, "lng": 55.138 },
      "context": "This site is part of an ambitious land reclamation project that began construction in 2001 and includes luxury hotels and residences."
    },
    {
      "question": "Where can you find the modern architectural marvel known as the 'Gherkin', a uniquely shaped skyscraper completed in 2003, symbolizing urban sustainability?",
      "answer": { "label": "30 St Mary Axe, London", "lat": 51.514, "lng": -0.080 },
      "context": "This building is notable for its energy efficiency design and distinctive glass and steel structure in the heart of London's financial district."
    },
    {
      "question": "Which famous museum houses the 'Mona Lisa' and is located in a historic royal palace in the capital city of France?",
      "answer": { "label": "Louvre Museum, Paris", "lat": 48.860, "lng": 2.337 },
      "context": "This iconic museum, originally a royal fortress, is now one of the largest and most visited art museums in the world."
    },
    {
      "question": "Identify the space exploration site known for launching the first man into space in 1961.",
      "answer": { "label": "Baikonur Cosmodrome, Kazakhstan", "lat": 45.964, "lng": 63.305 },
      "context": "This site is famously where Yuri Gagarin became the first human to orbit Earth aboard the Vostok 1 spacecraft."
    },
    {
      "question": "Where is the ancient ruin, home to the ancient city that was famously buried under volcanic ash in 79 AD, located?",
      "answer": { "label": "Pompeii, Italy", "lat": 40.749, "lng": 14.484 },
      "context": "The eruption of Mount Vesuvius led to the city's preservation under a thick layer of ash, offering insights into Roman life."
    }
  ]
}