{
  "questions": [
    {
      "question": "Which UNESCO World Heritage Site, known for its medieval astronomical clock installed in 1410, also hosted the famed 'Defenestration' incident in the early 17th century?",
      "answer": { "label": "Old Town Square, Prague, Czech Republic", "lat": 50.0875, "lng": 14.4208 },
      "context": "This historic square in Central Europe has witnessed numerous pivotal events, including various uprisings and ceremonial entries."
    },
    {
      "question": "Which ancient ruin, a marvel of engineering and a tomb for an Egyptian Pharaoh, has entrances guarded by the famed Sphinx?",
      "answer": { "label": "Great Pyramid of Giza, Giza, Egypt", "lat": 29.9792, "lng": 31.1342 },
      "context": "This ancient structure is part of a larger complex and is considered one of the Seven Wonders of the Ancient World, embodying the pinnacle of pyramid construction."
    },
    {
      "question": "In which city can you find the iconic museum that houses 'The Starry Night', painted by Vincent van Gogh during his time in an asylum?",
      "answer": { "label": "Museum of Modern Art (MoMA), New York City, USA", "lat": 40.7614, "lng": -73.9776 },
      "context": "This museum is a key attraction in the USA, known for its extensive collection of modern and contemporary art from globally recognized artists."
    },
    {
      "question": "What is the architectural feat, a World Wonder, that is the main attraction within the Vatican City and the largest church in the world?",
      "answer": { "label": "St. Peter's Basilica, Vatican City", "lat": 41.9022, "lng": 12.4539 },
      "context": "This Renaissance-era basilica is a central landmark of Catholicism and draws millions of pilgrims and tourists annually."
    },
    {
      "question": "Which capital city, home to an extravagant imperial palace and the site of a historic albeit short-lived Republic declaration, served as a global center of the Holy Roman Empire?",
      "answer": { "label": "Vienna, Austria", "lat": 48.2082, "lng": 16.3738 },
      "context": "Known for its music heritage and rich history, this city uniquely blends imperial tradition with modern cultural scenes."
    }
  ]
}