```json
{
  "questions": [
    {
      "question": "Which UNESCO World Heritage Site in Italy is famous for its unique trulli houses, characterized by conical roofs and whitewashed walls?",
      "answer": { "label": "Alberobello, Italy", "lat": 40.78, "lng": 17.24 },
      "context": "This small town is noted for its preserved trulli, showcasing a distinctive prehistoric building technique."
    },
    {
      "question": "What site in Greece, associated with the Oracle of Apollo, was a major center of the ancient Greek world and is a UNESCO World Heritage Site?",
      "answer": { "label": "Delphi, Greece", "lat": 38.48, "lng": 22.50 },
      "context": "Delphi was considered the center of the world by ancient Greeks, with the famous Oracle providing prophecies for centuries."
    },
    {
      "question": "Which UNESCO World Heritage Site in Japan is known for its iconic red torii gate that appears to float on water during high tide?",
      "answer": { "label": "Itsukushima Shrine, Japan", "lat": 34.29, "lng": 132.32 },
      "context": "This site is located on an island in Hiroshima Bay and is a fine example of Shinto shrine architecture."
    },
    {
      "question": "What UNESCO World Heritage Site in Turkey was an important cultural and religious center in the Byzantine Empire, known for its mosaics and as the site of the Nika riots?",
      "answer": { "label": "Hagia Sophia, Istanbul, Turkey", "lat": 41.00, "lng": 28.98 },
      "context": "Originally built as a cathedral, it has served as a mosque and now as a museum, symbolizing the meeting of Eastern and Western cultures."
    },
    {
      "question": "Which Italian UNESCO World Heritage Site is famed for its colonnaded piazza created by Gian Lorenzo Bernini and contains the renowned Sistine Chapel?",
      "answer": { "label": "Vatican City, Vatican", "lat": 41.90, "lng": 12.45 },
      "context": "Enclosed within the walls of Rome, this city-state is the heart of the Catholic Church and home to the Pope."
    }
  ]
}
```