{
  "questions": [
    {
      "question": "Which ancient site, located in Peru, was once a thriving Inca city and is known for its intricate terraced design and iconic stone structures?",
      "answer": { "label": "Machu Picchu, Peru", "lat": -13.1631, "lng": -72.5450 },
      "context": "Rediscovered in 1911 by Hiram Bingham, this site is often mistakenly called the 'Lost City of the Incas' and offers breathtaking views of the Andes mountains."
    },
    {
      "question": "Where can you find one of the most significant modern architectural marvels, a wonder of engineering located in the Middle East, known for its sail-shaped design?",
      "answer": { "label": "Burj Al Arab, Dubai, UAE", "lat": 25.1413, "lng": 55.1853 },
      "context": "Opened in 1999, this luxury hotel is built on an artificial island and is a symbol of Dubai's rapid urban growth and luxury tourism."
    },
    {
      "question": "Which historical battle site, located in Belgium, was the setting for Napoleon Bonaparte's final defeat in 1815?",
      "answer": { "label": "Waterloo, Belgium", "lat": 50.6800, "lng": 4.4126 },
      "context": "Fought near the village of Waterloo, this battle marked the end of the Napoleonic Wars and led to a reshaping of European borders and politics."
    },
    {
      "question": "In which European city can you visit the Uffizi Gallery, home to an extensive collection of Renaissance art including pieces by Botticelli and Leonardo da Vinci?",
      "answer": { "label": "Uffizi Gallery, Florence, Italy", "lat": 43.7687, "lng": 11.2559 },
      "context": "This museum, housed in a 16th-century palace, is one of the most famous and visited art museums in the world and played a pivotal role during the Italian Renaissance."
    },
    {
      "question": "Known as a space exploration site, which location in Kazakhstan serves as the world's oldest and largest operational space launch facility?",
      "answer": { "label": "Baikonur Cosmodrome, Kazakhstan", "lat": 45.9203, "lng": 63.3422 },
      "context": "Established in 1955, this site was crucial for Soviet space missions and remains in use today for international launches, including the Soyuz program."
    }
  ]
}