```json
{
  "questions": [
    {
      "question": "Which famous UNESCO World Heritage Site in South America is known for its extensive Inca terraces and was rediscovered by Hiram Bingham in 1911?",
      "answer": { "label": "Machu Picchu, Peru", "lat": -13.1631, "lng": -72.5450 },
      "context": "This iconic ancient ruin, located high in the Andes Mountains, is a symbol of the Incan Empire and offers breathtaking views of the surrounding landscape."
    },
    {
      "question": "Where can you find the colossal sculpture created by French artist Paul Landowski, known for watching over the city of Rio de Janeiro since 1931?",
      "answer": { "label": "Christ the Redeemer, Brazil", "lat": -22.9519, "lng": -43.2105 },
      "context": "This monumental statue of Jesus stands atop the Corcovado mountain and is one of the New Seven Wonders of the World, a must-see for visitors."
    },
    {
      "question": "In which Asian city can you visit the Petronas Towers, the world's tallest twin towers until 2004, symbolizing the country's rapid economic development?",
      "answer": { "label": "Petronas Towers, Kuala Lumpur", "lat": 3.1579, "lng": 101.7114 },
      "context": "These iconic skyscrapers, completed in 1998, were designed by Argentine architect César Pelli and feature postmodern architecture."
    },
    {
      "question": "What ancient Roman site is located in Italy and was buried under volcanic ash from Mount Vesuvius in 79 AD?",
      "answer": { "label": "Pompeii, Italy", "lat": 40.7485, "lng": 14.4975 },
      "context": "These well-preserved ruins offer a fascinating glimpse into daily life during the time of the Roman Empire."
    },
    {
      "question": "Which historic palace in Paris, originally built as a hunting lodge in 1623, became an opulent symbol of the absolute monarchy of the Ancien Régime?",
      "answer": { "label": "Palace of Versailles, France", "lat": 48.8049, "lng": 2.1204 },
      "context": "Known for its Hall of Mirrors and beautiful gardens, this UNESCO World Heritage site is a testament to the grandeur of Louis XIV's reign."
    }
  ]
}
```