{
  "questions": [
    {
      "question": "Which modern architectural marvel, located in the Middle East, was the tallest man-made structure in the world upon completion in 2010?",
      "answer": { "label": "Burj Khalifa, Dubai", "lat": 25.1972, "lng": 55.2744 },
      "context": "Designed by Adrian Smith, it features 163 floors and is a symbol of Dubai's rapid development and global economic aspirations."
    },
    {
      "question": "What ancient ruins, found in South America, were once a flourishing city of the Inca Empire and rediscovered by Hiram Bingham in 1911?",
      "answer": { "label": "Machu Picchu, Peru", "lat": -13.1631, "lng": -72.5450 },
      "context": "Located in the Andes Mountains, it is renowned for its sophisticated dry-stone construction and panoramic views."
    },
    {
      "question": "Which famous museum in Europe is home to the Mona Lisa and other world-renowned artworks, having been established as a public museum in 1793?",
      "answer": { "label": "Louvre Museum, Paris", "lat": 48.8606, "lng": 2.3376 },
      "context": "Originally a royal palace, it now hosts a vast collection of art and artifacts, drawing millions of visitors annually."
    },
    {
      "question": "Which capital city in Europe is known for its vibrant culture, diverse architecture, and as the setting of a major diplomatic standoff during the Cold War?",
      "answer": { "label": "Berlin, Germany", "lat": 52.5200, "lng": 13.4050 },
      "context": "Divided by the Berlin Wall from 1961 to 1989, the city has since become a symbol of reunification and resilience."
    },
    {
      "question": "What historical battle site in Europe marks the location of the decisive defeat of Napoleon Bonaparte in 1815?",
      "answer": { "label": "Waterloo, Belgium", "lat": 50.6806, "lng": 4.4125 },
      "context": "This battle ended Napoleon's rule as Emperor of the French and changed the course of European history."
    }
  ]
}