{
  "questions": [
    {
      "question": "Which modern architectural marvel in the Middle East, designed by Jean Nouvel, opened in 2017 and attempts to house the history of humanity’s artistic achievements?",
      "answer": { "label": "Louvre Abu Dhabi, United Arab Emirates", "lat": 24.53, "lng": 54.39 },
      "context": "This museum is a symbol of cross-cultural collaboration and features a 'Rain of Light' dome, inspired by traditional Arabic architecture."
    },
    {
      "question": "What historical battle site in Belgium saw a decisive battle involving Napoleon Bonaparte on June 18th, 1815?",
      "answer": { "label": "Waterloo, Belgium", "lat": 50.68, "lng": 4.41 },
      "context": "This battle marked the end of the Napoleonic Wars and led to the restoration of European monarchies."
    },
    {
      "question": "What famous museum in Spain, housed in a neoclassical building designed by architect Juan de Villanueva, celebrated its bicentenary in 2019?",
      "answer": { "label": "Museo del Prado, Madrid, Spain", "lat": 40.41, "lng": -3.69 },
      "context": "Known for its extensive collection of European art from the 12th to the early 20th century, including works by Velázquez, Goya, and Bosch."
    },
    {
      "question": "Which ancient ruin site in Greece is reputedly the birthplace of the Olympic Games, first held in 776 BC?",
      "answer": { "label": "Olympia, Greece", "lat": 37.64, "lng": 21.63 },
      "context": "Olympia is home to the ruins of the original Olympic stadium and temples dedicated to Zeus and Hera."
    },
    {
      "question": "Which space exploration site includes a launch complex that has been used for every manned NASA mission since the Apollo program?",
      "answer": { "label": "Kennedy Space Center, Florida, United States", "lat": 28.57, "lng": -80.65 },
      "context": "This center is known for its iconic Vehicle Assembly Building and the launch of the Space Shuttle program."
    }
  ]
}