{
  "questions": [
    {
      "question": "What is the site of a famous modern concert hall, opened in 2001, known for its unique shell-like architecture, located in the Southern Hemisphere?",
      "answer": { "label": "Sydney Opera House, Sydney, Australia", "lat": -33.8568, "lng": 151.2153 },
      "context": "Recognized as a World Heritage site, it hosts over 1,500 performances annually."
    },
    {
      "question": "Where is the historical battle site, known for a decisive World War II battle in the Pacific, taking place in June 1942?",
      "answer": { "label": "Midway Atoll, U.S. Minor Outlying Islands", "lat": 28.2005, "lng": -177.3783 },
      "context": "The Battle of Midway significantly shifted the balance of naval power to the Allies."
    },
    {
      "question": "Which museum, opened in 1753, holds the Rosetta Stone and thousands of other historical artifacts, located in Europe's largest city?",
      "answer": { "label": "The British Museum, London, United Kingdom", "lat": 51.5194, "lng": -0.1270 },
      "context": "It was the world's first national public museum and remains one of the most visited."
    },
    {
      "question": "What ancient ruin is the center of the former Inca Empire, located at an altitude of 2,430 meters and rediscovered in 1911?",
      "answer": { "label": "Machu Picchu, Cusco Region, Peru", "lat": -13.1631, "lng": -72.5450 },
      "context": "Often referred to as 'The Lost City of the Incas', it is a testament to the Inca civilization."
    },
    {
      "question": "What is the site of the first controlled, artificial nuclear reaction, conducted in December 1942, located in a major Midwestern U.S. city?",
      "answer": { "label": "Chicago Pile-1, Chicago, United States", "lat": 41.7928, "lng": -87.5993 },
      "context": "Conducted under the stand of Stagg Field at the University of Chicago, this pivotal event marked the dawn of the atomic age."
    }
  ]
}