{
  "questions": [
    {
      "question": "Which modern architectural marvel in the United Arab Emirates holds the world record for the tallest building completed in 2010?",
      "answer": { "label": "Burj Khalifa, Dubai", "lat": 25.1972, "lng": 55.2744 },
      "context": "This structure is known for its unique design and is often recognized as a symbol of the country's rapid modernization and opulence."
    },
    {
      "question": "Which UNESCO World Heritage Site in Asia is renowned for its stunning collection of Buddhist monuments, created in the 3rd century BC?",
      "answer": { "label": "Sanchi, India", "lat": 23.4797, "lng": 77.7391 },
      "context": "This site contains the Great Stupa at Sanchi, famed for its intricate carvings and its significance in the spread of Buddhism."
    },
    {
      "question": "What ancient ruin, once the capital of the Nabataean Kingdom, is located in a narrow valley in modern-day Jordan?",
      "answer": { "label": "Petra, Jordan", "lat": 30.3285, "lng": 35.4444 },
      "context": "Famed for its rock-cut architecture and water conduit system, this archaeological site is one of the New Seven Wonders of the World."
    },
    {
      "question": "Which famous museum, located on an island in Berlin, is known for housing the Pergamon Altar and other classical antiquities?",
      "answer": { "label": "Pergamon Museum, Berlin", "lat": 52.5212, "lng": 13.3969 },
      "context": "This museum, part of Berlin's Museum Island, has a vast collection representing a rich array of historical artifacts from various civilizations."
    },
    {
      "question": "Which American city is home to an infamous penitentiary, operational from 1934 to 1963, that housed notorious criminals like Al Capone?",
      "answer": { "label": "Alcatraz Island, San Francisco", "lat": 37.8267, "lng": -122.4230 },
      "context": "This island prison, now a popular tourist site, is often remembered for its historical escape attempts and significant role in American penal history."
    }
  ]
}