{
  "questions": [
    {
      "question": "Which is the iconic structure in India that is considered one of the finest masterpieces of Persian-style architecture and was commissioned in 1632 by Mughal Emperor Shah Jahan in memory of his wife?",
      "answer": { "label": "Taj Mahal, Agra", "lat": 27.1751, "lng": 78.0421 },
      "context": "This UNESCO World Heritage Site draws millions of tourists yearly and is often recognized as the symbol of India's rich history."
    },
    {
      "question": "What is the renowned museum in France that houses famous works like the Mona Lisa and was once a royal palace in the heart of Paris?",
      "answer": { "label": "Louvre Museum, Paris", "lat": 48.8606, "lng": 2.3376 },
      "context": "This museum was originally established in 1793 during the French Revolution and covers more than 675,000 square feet of artwork."
    },
    {
      "question": "Which ancient ruin is located in Peru and was built by the Inca Empire in the 15th century, often referred to as the Lost City of the Incas?",
      "answer": { "label": "Machu Picchu, Peru", "lat": -13.1631, "lng": -72.5450 },
      "context": "This archaeological wonder was designated a UNESCO World Heritage Site in 1983 and attracts millions for its mysterious mountain settings."
    },
    {
      "question": "What is the historic battle site in Belgium, where Napoleon Bonaparte faced his final defeat in 1815?",
      "answer": { "label": "Waterloo Battlefield, Belgium", "lat": 50.6809, "lng": 4.4124 },
      "context": "This pivotal battle marked the end of the Napoleonic Wars and has a Lion's Mound as a monument to honor those who fell during the battle."
    },
    {
      "question": "Which space exploration site in the United States was the launch site for the Apollo missions, including the first moon landing in 1969?",
      "answer": { "label": "Kennedy Space Center, Florida", "lat": 28.5721, "lng": -80.6480 },
      "context": "Named after the U.S. President who set the ambitious goal of lunar exploration, this center is an active launch and research facility."
    }
  ]
}