{
  "questions": [
    {
      "question": "Which renowned UNESCO World Heritage Site is known for its historic amphitheater where gladiatorial contests occurred, located on the European continent?",
      "answer": { "label": "Colosseum, Rome", "lat": 41.89, "lng": 12.49 },
      "context": "Constructed in 70-80 AD, it's one of the greatest works of Roman architecture and engineering, capable of holding up to 80,000 spectators."
    },
    {
      "question": "Identify the UNESCO site in Africa that once thrived as a major trading hub between the 13th and 16th centuries, known for its imposing stone ruins.",
      "answer": { "label": "Great Zimbabwe, Zimbabwe", "lat": -20.27, "lng": 30.93 },
      "context": "The site includes the Great Enclosure, a massive stone structure, unique for the era due to its scale and craftsmanship without mortar."
    },
    {
      "question": "Which UNESCO World Heritage Site in Asia is famously known for a temple complex dedicated to Lord Vishnu and represents Khmer architecture?",
      "answer": { "label": "Angkor Wat, Cambodia", "lat": 13.41, "lng": 103.87 },
      "context": "This 12th-century temple complex is the largest religious monument in the world and showcases the epitome of classical style of Khmer architecture."
    },
    {
      "question": "What is the name of the world-famous museum located in North America, renowned for its extensive collection of art exhibits from antiquity to the modern era?",
      "answer": { "label": "Metropolitan Museum of Art, New York City", "lat": 40.78, "lng": -73.96 },
      "context": "Opened in 1872, it houses over 2 million works, ranging from classical antiquity to the modern art era, and includes famous works by artists like Rembrandt and Van Gogh."
    },
    {
      "question": "Which UNESCO World Heritage Site in Europe is known for its unique palaces and gardens that illustrate the fusion of different architectural styles from the Moorish and Christian eras?",
      "answer": { "label": "Alhambra, Granada", "lat": 37.17, "lng": -3.59 },
      "context": "This stunning palace and fortress complex was originally constructed in 889 AD, with its most notable expansion during the Nasrid Dynasty in the 13th century."
    }
  ]
}