{
  "questions": [
    {
      "question": "Which UNESCO site in Italy is famous for its structured urban planning and is said to have been buried under volcanic ash in 79 AD?",
      "answer": { "label": "Pompeii, Italy", "lat": 40.75, "lng": 14.49 },
      "context": "The ancient city of Pompeii is one of the most significant proofs of Roman civilization and provides an extraordinarily detailed insight into the everyday life of its inhabitants."
    },
    {
      "question": "Which ancient ruin in the Middle East, known for its towering ziggurat, was the ceremonial capital of the Achaemenid Empire?",
      "answer": { "label": "Persepolis, Iran", "lat": 29.94, "lng": 52.89 },
      "context": "Founded by Darius I in 518 BC, Persepolis was the grand ceremonial complex of the Persian Empire, famously destroyed by Alexander the Great."
    },
    {
      "question": "Which museum in France houses the Mona Lisa and is one of the world's largest and most visited art museums?",
      "answer": { "label": "Louvre Museum, Paris, France", "lat": 48.86, "lng": 2.34 },
      "context": "Initially a palace before becoming a museum in 1793, the Louvre's collection spans work from ancient civilizations to the mid-19th century."
    },
    {
      "question": "Which modern architectural marvel in the Middle East is known for its enormous height and spiral Minaret inspired design?",
      "answer": { "label": "Burj Khalifa, Dubai, UAE", "lat": 25.20, "lng": 55.27 },
      "context": "Completed in 2010, the Burj Khalifa stands at 828 meters and is the tallest building in the world, symbolizing the engineering capabilities of the 21st century."
    },
    {
      "question": "Which capital city in Africa is known for its proximity to Robben Island, where Nelson Mandela was imprisoned for 18 years?",
      "answer": { "label": "Cape Town, South Africa", "lat": -33.92, "lng": 18.42 },
      "context": "Founded by the Dutch East India Company in 1652, Cape Town is a vibrant city famed not just for its history but also for Table Mountain and its natural beauty."
    }
  ]
}