{
  "questions": [
    {
      "question": "Which UNESCO World Heritage Site in Egypt was relocated in the 1960s to prevent submersion under the rising waters of Lake Nasser?",
      "answer": { "label": "Abu Simbel Temples, Egypt", "lat": 22.3372, "lng": 31.6258 },
      "context": "The Abu Simbel temples were originally carved out of the mountainside during the reign of Pharaoh Ramesses II in the 13th century BC."
    },
    {
      "question": "Where can you find a UNESCO World Heritage Site that features an ancient Nabatean city with impressive rock-cut architecture?",
      "answer": { "label": "Petra, Jordan", "lat": 30.3285, "lng": 35.4444 },
      "context": "Petra was famously featured in Indiana Jones and the Last Crusade and is known as the 'Rose City' due to the color of the stone."
    },
    {
      "question": "What is the name of the UNESCO World Heritage Site located in Peru, famous for its 15th-century Inca citadel set high in the Andes Mountains?",
      "answer": { "label": "Machu Picchu, Peru", "lat": -13.1631, "lng": -72.5450 },
      "context": "Machu Picchu is often referred to as the 'Lost City of the Incas' and was rediscovered by American explorer Hiram Bingham in 1911."
    },
    {
      "question": "Which towering modern architectural marvel in China holds the record as the tallest building in its province?",
      "answer": { "label": "Shanghai Tower, China", "lat": 31.2336, "lng": 121.5055 },
      "context": "Completed in 2015, the Shanghai Tower is the second tallest building in the world and features the world's fastest elevators, zipping you up at 20.5 meters per second."
    },
    {
      "question": "What historical battle site, now a UNESCO World Heritage Site, marked the westernmost expansion of the Mongol Empire in the 13th century located in Hungary?",
      "answer": { "label": "Battle of Mohi, Hungary", "lat": 47.8671, "lng": 20.8666 },
      "context": "The Battle of Mohi in 1241 was a significant conflict where the Hungarian forces were decisively defeated by the Mongols, leading to a major retreat by the Europeans."
    }
  ]
}