{
  "questions": [
    {
      "question": "What UNESCO World Heritage Site in Peru was once the heart of the Inca Empire and features the famous citadel on a mountain ridge?",
      "answer": { "label": "Machu Picchu, Peru", "lat": -13.1631, "lng": -72.5450 },
      "context": "This site is renowned for its sophisticated dry-stone construction that fuses huge blocks without the use of mortar."
    },
    {
      "question": "What UNESCO World Heritage Site in Egypt, built during the reign of Pharaoh Khufu, is the last standing wonder of the ancient world?",
      "answer": { "label": "Great Pyramid of Giza", "lat": 29.9792, "lng": 31.1342 },
      "context": "Constructed during the Fourth Dynasty, this pyramid was the tallest man-made structure in the world for more than 3,800 years."
    },
    {
      "question": "Which UNESCO World Heritage Site in India is famously known for its intricate carvings and erotic sculptures, representing a celebration of love and life?",
      "answer": { "label": "Khajuraho Temples", "lat": 24.8516, "lng": 79.9210 },
      "context": "These temples, built during the Chandela dynasty, are a prime example of architectural symbolism and have been admired for centuries."
    },
    {
      "question": "In Italy, what UNESCO World Heritage Site is renowned for its Leaning Tower, which began tilting during its construction in the 12th century?",
      "answer": { "label": "Piazza del Duomo, Pisa", "lat": 43.7230, "lng": 10.3966 },
      "context": "The iconic tilt of the tower is due to an unstable foundation and soft soil, which remains a mystery in civil engineering."
    },
    {
      "question": "Which historic site in Germany was designated a UNESCO World Heritage Site for its exquisite Baroque architecture, originally commissioned by Augustus the Strong?",
      "answer": { "label": "Zwinger Palace, Dresden", "lat": 51.0532, "lng": 13.7361 },
      "context": "This cultural landmark was heavily damaged in World War II but has since been meticulously restored to reflect its former grandeur."
    }
  ]
}