```json
{
  "questions": [
    {
      "question": "Which modern architectural marvel in the United Arab Emirates was once declared the world's tallest building upon its completion in 2010?",
      "answer": { "label": "Burj Khalifa, Dubai", "lat": 25.1972, "lng": 55.2744 },
      "context": "This skyscraper contains an impressive 163 floors and offers views that stretch far across Dubai's desert landscape."
    },
    {
      "question": "What historical battle site in Belgium is known for Napoleon's final defeat in 1815, marking the end of the Napoleonic Wars?",
      "answer": { "label": "Battle of Waterloo site, Waterloo", "lat": 50.6806, "lng": 4.4124 },
      "context": "The battle led to the exile of Napoleon Bonaparte and is depicted in many films and books as a turning point in European history."
    },
    {
      "question": "Which famous museum in France houses a large collection of Impressionist and post-Impressionist masterpieces and is located in a former railway station?",
      "answer": { "label": "Musée d'Orsay, Paris", "lat": 48.8597, "lng": 2.3266 },
      "context": "Originally built for the 1900 World's Fair, this museum now features works by artists such as Monet, Van Gogh, and Degas."
    },
    {
      "question": "Which ancient ruin in Jordan, famous for its rock-cut architecture and water conduit system, was one of the new 7 Wonders of the World in 2007?",
      "answer": { "label": "Petra, Jordan", "lat": 30.3285, "lng": 35.4444 },
      "context": "This archaeological site became renowned with its discovery by the Western world in the early 19th century and was a trade center around 400 BC."
    },
    {
      "question": "What is the capital city of Canada, known for its Parliament Hill and being the political center of the country?",
      "answer": { "label": "Ottawa, Ontario", "lat": 45.4215, "lng": -75.6972 },
      "context": "Besides hosting government offices, Ottawa is famous for its historic canal that becomes the world’s largest skating rink in winter."
    }
  ]
}
```