{
  "questions": [
    {
      "question": "Which UNESCO World Heritage site was completed in 1887 and features Gothic architecture renowned for its stunning stained glass windows and intricate sculptures?",
      "answer": { "label": "Sainte-Chapelle, France", "lat": 48.855, "lng": 2.345 },
      "context": "Located in Paris, this chapel was built to house precious Christian relics, including the Crown of Thorns, during the reign of King Louis IX."
    },
    {
      "question": "Which ancient site in Peru, known for its massive stone walls and mysterious origins, was built by the Incas around the 13th century and offers panoramic views of the surrounding valley?",
      "answer": { "label": "Sacsayhuamán, Peru", "lat": -13.508, "lng": -71.981 },
      "context": "Overlooking the city of Cusco, this fortress is a marvel of Incan engineering, with stones carefully cut to fit together without mortar."
    },
    {
      "question": "What is the name of the museum located on an island in the United Arab Emirates, opened in 2017, and designed by architect Jean Nouvel to resemble an oasis with a 'museum city' beneath a perforated dome?",
      "answer": { "label": "Louvre Abu Dhabi, United Arab Emirates", "lat": 24.525, "lng": 54.434 },
      "context": "This museum represents a collaboration between France and UAE, displaying artworks from multiple civilizations and house galleries dedicated to different themes tracing humanity's history."
    },
    {
      "question": "In which city can you find the Petronas Towers, completed in 1998, that were once the tallest buildings in the world and symbolized Malaysia's economic growth?",
      "answer": { "label": "Petronas Twin Towers, Malaysia", "lat": 3.157, "lng": 101.712 },
      "context": "Located in Kuala Lumpur, these towers are famous for their distinctive postmodern style and skybridge connecting the two structures."
    },
    {
      "question": "Which historic space exploration site in Kazakhstan witnessed the launch of the first artificial satellite in 1957, marking the start of the space age?",
      "answer": { "label": "Baikonur Cosmodrome, Kazakhstan", "lat": 45.965, "lng": 63.305 },
      "context": "The Baikonur Cosmodrome remains the world’s first and largest operational space launch facility, famous for launching Sputnik 1 and the first human, Yuri Gagarin, into space."
    }
  ]
}