```json
{
  "questions": [
    {
      "question": "Which iconic UNESCO heritage site located in a small Italian city is renowned for its leaning tower, constructed in 1173 and completed in the 14th century?",
      "answer": { "label": "Piazza del Duomo, Pisa", "lat": 43.723, "lng": 10.396 },
      "context": "The Leaning Tower of Pisa is a defining structure of the Piazza del Duomo and is famous worldwide for its unintended tilt."
    },
    {
      "question": "Where can you visit the site of the historic 1066 battle, which marked the beginning of the Norman conquest of England?",
      "answer": { "label": "Battle Abbey, Hastings", "lat": 50.912, "lng": 0.488 },
      "context": "The Battle of Hastings was fought here, leading to the eventual rule of William the Conqueror over England."
    },
    {
      "question": "Which museum in France, famously depicted in Dan Brown's 'The Da Vinci Code', houses thousands of works including the Mona Lisa?",
      "answer": { "label": "Louvre Museum, Paris", "lat": 48.8606, "lng": 2.3376 },
      "context": "The Louvre, originally a royal palace, is the world's largest art museum and a historic monument in Paris."
    },
    {
      "question": "Which ancient city in Jordan, known for its rock-cut architecture, was a major trading hub during the Nabataean period?",
      "answer": { "label": "Petra", "lat": 30.3285, "lng": 35.4444 },
      "context": "Petra, colloquially known as the 'Rose City' due to the color of its stone, was lost to the Western world until the 19th century."
    },
    {
      "question": "Which space exploration company's headquarters is situated in California, and has led numerous groundbreaking missions including the Dragon spacecraft launch?",
      "answer": { "label": "SpaceX Headquarters, Hawthorne", "lat": 33.9206, "lng": -118.3278 },
      "context": "Founded by Elon Musk, SpaceX is the first private company to return a spacecraft from low-Earth orbit, and its headquarters is in Hawthorne, California."
    }
  ]
}
```