```json
{
  "questions": [
    {
      "question": "Which ancient ruin, known for being the birthplace of democracy, is located in Europe and sits on a hill offering panoramic views of the surrounding city?",
      "answer": { "label": "Acropolis of Athens, Greece", "lat": 37.9715, "lng": 23.7267 },
      "context": "The Acropolis of Athens is a UNESCO World Heritage Site, home to the Parthenon, and has stood for over 2,500 years."
    },
    {
      "question": "What modern architectural marvel in the Middle East is recognized as the world's tallest structure?",
      "answer": { "label": "Burj Khalifa, Dubai", "lat": 25.1972, "lng": 55.2744 },
      "context": "Completed in 2010, the Burj Khalifa stands at 828 meters tall and houses luxury apartments, hotels, and restaurants."
    },
    {
      "question": "Which famous capital city museum in the United States holds the largest collection of art and historical objects in the Western Hemisphere?",
      "answer": { "label": "The Smithsonian Institution, Washington, D.C.", "lat": 38.8860, "lng": -77.0199 },
      "context": "Founded in 1846, the Smithsonian consists of 19 museums and galleries including the National Air and Space Museum."
    },
    {
      "question": "What historical battle site in Normandy, France, marks the beginning of the liberation of Western Europe in WWII?",
      "answer": { "label": "Omaha Beach, Normandy", "lat": 49.3762, "lng": -0.8787 },
      "context": "On June 6, 1944, Allied forces launched the D-Day invasion here, which was pivotal in defeating Nazi Germany."
    },
    {
      "question": "Which site in the Americas, known for its expansive and mysterious stone structures, is an ancient ruin recognized as a wonder of the world?",
      "answer": { "label": "Machu Picchu, Peru", "lat": -13.1631, "lng": -72.5450 },
      "context": "Built in the 15th century by the Inca Empire, Machu Picchu was rediscovered in 1911 and is set high in the Andes Mountains."
    }
  ]
}
```