{
  "questions": [
    {
      "question": "Which UNESCO World Heritage Site in Southeast Asia, known for its intricate bas-reliefs and vast temple complex, was originally constructed as a Hindu temple but later transformed into a Buddhist center?",
      "answer": { "label": "Angkor Wat, Cambodia", "lat": 13.4125, "lng": 103.8667 },
      "context": "Angkor Wat is the largest religious monument in the world, built in the early 12th century by King Suryavarman II."
    },
    {
      "question": "Which modern architectural marvel, located in the Middle East, is recognized as the tallest structure constructed in the 21st century?",
      "answer": { "label": "Burj Khalifa, Dubai, United Arab Emirates", "lat": 25.1972, "lng": 55.2744 },
      "context": "Standing at 828 meters, the Burj Khalifa held its grand opening in January 2010 and features unique design elements inspired by the Hymenocallis flower."
    },
    {
      "question": "Identify the historical battle site in Europe where a famous battle took place in 1815, marking the end of the Napoleonic Wars.",
      "answer": { "label": "Waterloo, Belgium", "lat": 50.6806, "lng": 4.4122 },
      "context": "The Battle of Waterloo saw the defeat of Napoleon Bonaparte by a coalition of British, Dutch, Belgian, and Prussian forces."
    },
    {
      "question": "Which famous museum, located in Spain, is home to the largest collection of works by Pablo Picasso, including 'Guernica'?",
      "answer": { "label": "Museo Reina Sofía, Madrid, Spain", "lat": 40.4081, "lng": -3.6947 },
      "context": "The Museo Reina Sofía was inaugurated in 1992 and features a diverse collection of 20th-century art pieces."
    },
    {
      "question": "What ancient ruin site in the Middle East was recognized as a UNESCO World Heritage Site for its rock-cut architecture and water conduit system, flourishing in the 4th century BC?",
      "answer": { "label": "Petra, Jordan", "lat": 30.3285, "lng": 35.4444 },
      "context": "Also known as the 'Rose City' due to the color of the stone, Petra was the capital of the Nabataean Kingdom."
    }
  ]
}