{
  "questions": [
    {
      "question": "Which famous museum houses Leonardo da Vinci's Mona Lisa and was originally built as a fortress in 1190?",
      "answer": { "label": "Louvre Museum, Paris", "lat": 48.8606, "lng": 2.3376 },
      "context": "Located on the banks of the Seine River, this museum in France is the world's largest art museum and a historic monument."
    },
    {
      "question": "Where is the architectural marvel that features the tallest man-made structure in the world, standing at 828 meters?",
      "answer": { "label": "Burj Khalifa, Dubai", "lat": 25.1972, "lng": 55.2744 },
      "context": "Found in the United Arab Emirates, this building reached its full height in 2010 and has an observation deck on the 148th floor."
    },
    {
      "question": "What ancient ruin, known for its unique step pyramid and as the heart of an advanced civilization, can be found on the Yucatán Peninsula?",
      "answer": { "label": "Chichen Itza, Yucatán", "lat": 20.6843, "lng": -88.5678 },
      "context": "This site in Mexico includes the Kukulkan Pyramid and was a center of Mayan civilization around 600 AD."
    },
    {
      "question": "Which space exploration site served as the launch site for the Apollo 11 mission to the moon in 1969?",
      "answer": { "label": "Kennedy Space Center, Florida", "lat": 28.5721, "lng": -80.648 },
      "context": "Located on Merritt Island, USA, this site is a major center for spaceflight operations, named after the 35th President of the United States."
    },
    {
      "question": "Which historical battle site, located in Belgium, marked the defeat of Napoleon Bonaparte on June 18, 1815?",
      "answer": { "label": "Battle of Waterloo Site, Waterloo", "lat": 50.6806, "lng": 4.4086 },
      "context": "This site is famous for the clash between Napoleon's army and the Seventh Coalition forces, which changed the course of European history."
    }
  ]
}