```json
{
  "questions": [
    {
      "question": "Which ancient ruins in the Andes mountains were rediscovered by Hiram Bingham in 1911 and are one of the most iconic sites of the Inca civilization?",
      "answer": { "label": "Machu Picchu, Peru", "lat": -13.1631, "lng": -72.5450 },
      "context": "This site is renowned for its sophisticated dry-stone construction technique and is often referred to as the 'Lost City of the Incas'."
    },
    {
      "question": "Where is the famous museum located that houses the largest collection of paintings by Vincent van Gogh, and is situated in the parkland of a key European capital?",
      "answer": { "label": "Van Gogh Museum, Amsterdam", "lat": 52.3584, "lng": 4.8810 },
      "context": "The museum in the Netherlands opened in 1973 and contains over 200 paintings by the Post-Impressionist master."
    },
    {
      "question": "What is the location of the space exploration site that served as the launch home for the first human-crewed lunar landing in 1969?",
      "answer": { "label": "Kennedy Space Center, Florida", "lat": 28.5721, "lng": -80.6480 },
      "context": "Located in the United States, this center was the departure point for the Apollo 11 mission that put the first humans on the Moon."
    },
    {
      "question": "Which UNESCO World Heritage Site, found in the Arabian desert, was known in antiquity for its overland trade routes and has remarkably well-preserved remnants of its funeral architecture?",
      "answer": { "label": "Hegra, Saudi Arabia", "lat": 26.7969, "lng": 37.9530 },
      "context": "Also known as Al-Hijr or Mada'in Saleh, this site was the southern capital of the Nabataean kingdom, similar in importance to Petra."
    },
    {
      "question": "Known as the largest synagogue in New York City, which architectural marvel serves as a significant cultural center and was built in the eastern Moorish Revival style?",
      "answer": { "label": "Temple Emanu-El, New York", "lat": 40.7733, "lng": -73.9664 },
      "context": "Since its dedication in 1929, this synagogue has served as a monumental symbol of Reform Judaism in the United States."
    }
  ]
}
```