{
  "questions": [
    {
      "question": "Which ancient architectural marvel served as a mausoleum and stood as one of the Seven Wonders of the Ancient World in what is now Turkey?",
      "answer": { "label": "Mausoleum at Halicarnassus, Turkey", "lat": 37.0379, "lng": 27.4241 },
      "context": "Built around 350 BC for Mausolus, this structure is known for its grand design and intricate sculptures."
    },
    {
      "question": "Which iconic museum in Europe, opened in 1793, houses famous artworks like the 'Mona Lisa' and 'Venus de Milo'?",
      "answer": { "label": "Louvre Museum, Paris", "lat": 48.8606, "lng": 2.3376 },
      "context": "Originally a royal palace, this museum became public during the French Revolution, attracting millions of visitors annually."
    },
    {
      "question": "Where can you find the ancient Incan citadel known for its architectural ingenuity amidst the Andes mountains?",
      "answer": { "label": "Machu Picchu, Peru", "lat": -13.1631, "lng": -72.545 },
      "context": "Rediscovered in 1911 by Hiram Bingham, this site is renowned for its dry-stone construction and panoramic views."
    },
    {
      "question": "What historical site in Italy was buried in volcanic ash in AD 79, preserving Roman life for centuries?",
      "answer": { "label": "Pompeii, Italy", "lat": 40.7485, "lng": 14.4851 },
      "context": "Located near modern Naples, this site provides a stark look into the ancient world with its remarkably well-preserved ruins."
    },
    {
      "question": "Which space exploration site in the United States, established in 1962, is famous for launching numerous significant space missions?",
      "answer": { "label": "Kennedy Space Center, Florida", "lat": 28.5721, "lng": -80.648 },
      "context": "Serving as NASA's primary launch center, it has seen historic events such as the Apollo moon missions."
    }
  ]
}