{
  "questions": [
    {
      "question": "Which UNESCO site, located in Asia, is famous for its 9th-century temple complex and is distinguished for its intricate stone carvings, depicting the Ramayana and Mahabharata?",
      "answer": { "label": "Prambanan Temple, Indonesia", "lat": -7.7519, "lng": 110.4916 },
      "context": "This Hindu temple is one of the largest in Southeast Asia and was abandoned after a major earthquake in the 16th century."
    },
    {
      "question": "What famous museum was established around the 17th century, expanded significantly by Catherine the Great, and is now home to one of the largest art collections in the world?",
      "answer": { "label": "Hermitage Museum, Russia", "lat": 59.9406, "lng": 30.3139 },
      "context": "Located in a historic palace in Europe, this museum houses over three million items, including works by Leonardo da Vinci and Rembrandt."
    },
    {
      "question": "Which modern architectural marvel, completed in 2010, is recognized as the world's tallest building, standing at over 828 meters tall?",
      "answer": { "label": "Burj Khalifa, Dubai", "lat": 25.1972, "lng": 55.2744 },
      "context": "This skyscraper is a symbol of Middle Eastern achievement and houses the world's highest observation deck and tallest elevator."
    },
    {
      "question": "What famous museum is located on Fifth Avenue in New York City and is known for its distinctive spiral architecture designed by Frank Lloyd Wright?",
      "answer": { "label": "Solomon R. Guggenheim Museum, USA", "lat": 40.7829, "lng": -73.9585 },
      "context": "This museum, part of a broader network, opened in 1959 and is famous for its collections of Impressionist, Post-Impressionist, and contemporary art."
    },
    {
      "question": "Which famous ancient ruin, located in Peru, was rediscovered by the Western world in 1911 and is often referred to as the 'Lost City of the Incas'?",
      "answer": { "label": "Machu Picchu, Peru", "lat": -13.1631, "lng": -72.5450 },
      "context": "This site, nestled in the Andes Mountains, was built in the 15th century and is one of the most iconic symbols of Inca civilization."
    }
  ]
}