{
  "questions": [
    {
      "question": "Which building, opened in 1973 and located in the heart of Sydney, is recognized as a modern architectural marvel for its unique sail-like design?",
      "answer": { "label": "Sydney Opera House, Australia", "lat": -33.857, "lng": 151.215 },
      "context": "This structure is a UNESCO World Heritage Site and hosts more than 1,500 performances annually."
    },
    {
      "question": "Which famous museum in Paris houses the Mona Lisa and was originally built as a fortress in the 12th century?",
      "answer": { "label": "Louvre Museum, France", "lat": 48.861, "lng": 2.336 },
      "context": "It is the world's largest art museum and a historic monument in the heart of Paris."
    },
    {
      "question": "What is the iconic, historic amphitheater located in Rome that was inaugurated in AD 80 and is now one of Italy's most famous ancient ruins?",
      "answer": { "label": "Colosseum, Italy", "lat": 41.890, "lng": 12.492 },
      "context": "This arena hosted gladiatorial games and could hold up to 80,000 spectators at its peak."
    },
    {
      "question": "Which important battle site, located in Belgium, was the setting for Napoleon Bonaparte's final defeat in 1815?",
      "answer": { "label": "Waterloo, Belgium", "lat": 50.680, "lng": 4.410 },
      "context": "This site marks the end of Napoleon's rule and the start of a new era for Europe."
    },
    {
      "question": "Which UNESCO World Heritage Site, located in Petra, was the capital of the Nabataean Kingdom and is famous for its rock-cut architecture?",
      "answer": { "label": "Petra, Jordan", "lat": 30.328, "lng": 35.444 },
      "context": "Often referred to as the 'Rose City' due to the color of the stone, it is one of the New Seven Wonders of the World."
    }
  ]
}