{
  "questions": [
    {
      "question": "In what city can you find the UNESCO World Heritage Site that is dedicated to the architect Antoni Gaudí and includes works such as Park Güell and Casa Milà?",
      "answer": { "label": "Barcelona, Spain", "lat": 41.38, "lng": 2.17 },
      "context": "The site features works that were designed by Gaudí, a leading figure of Catalan Modernism, in early 20th-century Spain."
    },
    {
      "question": "Which museum, founded in 1805 within the United States, is known for housing large collections of dinosaur fossils and gems, including the Hope Diamond?",
      "answer": { "label": "Smithsonian National Museum of Natural History, Washington D.C.", "lat": 38.89, "lng": -77.03 },
      "context": "Part of the Smithsonian Institution, this museum is situated on the National Mall and attracts millions of visitors annually."
    },
    {
      "question": "What UNESCO site in Italy is famous for its Leaning Tower, a remarkable example of Romanesque architecture completed in the late 14th century?",
      "answer": { "label": "Piazza del Duomo, Pisa", "lat": 43.72, "lng": 10.40 },
      "context": "Known for its unintended tilt, the tower is accompanied by the cathedral and baptistery in the same grand complex."
    },
    {
      "question": "Which ancient ruin is located in Peru and features an Inca citadel set high in the Andes Mountains, often referred to as the 'Lost City of the Incas'?",
      "answer": { "label": "Machu Picchu", "lat": -13.16, "lng": -72.55 },
      "context": "Believed to have been built in the 15th century, Machu Picchu re-emerged to international attention in 1911 thanks to explorer Hiram Bingham."
    },
    {
      "question": "Where is the Parthenon located, a temple dedicated to the goddess Athena, known for its Doric columns and significant role in ancient Greek history?",
      "answer": { "label": "Acropolis of Athens, Greece", "lat": 37.97, "lng": 23.72 },
      "context": "Constructed in the 5th century BC, the Parthenon is an enduring symbol of Athenian democracy and classical architecture."
    }
  ]
}