{
  "questions": [
    {
      "question": "Which ancient site is one of the New Seven Wonders of the World, famous for a monumental city carved into rose-red cliffs?",
      "answer": { "label": "Petra, Jordan", "lat": 30.33, "lng": 35.44 },
      "context": "This archaeological site was the capital of the Nabataean Kingdom and is known for its advanced water-conduit system and stunning rock-cut architecture."
    },
    {
      "question": "Where can you find the famous engineering marvel popularly known as the 'gateway to the Eiffel Tower of the East' located at Dubai's Palm Jumeirah?",
      "answer": { "label": "Burj Al Arab, Dubai", "lat": 25.14, "lng": 55.19 },
      "context": "Opened in 1999, this luxury hotel is noted for its distinctive sail-shaped silhouette, making it one of the most recognizable hotel buildings worldwide."
    },
    {
      "question": "Identify the historically significant spaceport from which the first human journey into outer space was launched in 1961.",
      "answer": { "label": "Baikonur Cosmodrome, Kazakhstan", "lat": 45.92, "lng": 63.34 },
      "context": "It was from this launch site that Yuri Gagarin made his historic flight aboard Vostok 1, marking the beginning of human space exploration."
    },
    {
      "question": "Name the dark tourism site known as 'Ground Zero' that memorializes the tragic events of September 11, 2001.",
      "answer": { "label": "9/11 Memorial, New York City", "lat": 40.71, "lng": -74.01 },
      "context": "Located at the site of the former World Trade Center towers, this memorial features two reflecting pools and a museum honoring the victims of the attacks."
    },
    {
      "question": "Where is the iconic museum housing the famous painting Mona Lisa, located in the heart of the city known as the 'City of Light'?",
      "answer": { "label": "Louvre Museum, Paris", "lat": 48.86, "lng": 2.34 },
      "context": "Originally a royal palace, the Louvre became a public museum during the French Revolution and is now the world's most-visited museum."
    }
  ]
}