{
  "questions": [
    {
      "question": "Which ancient ruins, located in South America, were rediscovered in 1911 and are known for being a symbol of the Incan Empire?",
      "answer": { "label": "Machu Picchu, Peru", "lat": -13.1631, "lng": -72.5450 },
      "context": "Machu Picchu was believed to have been built in the 15th century under the order of the Incan emperor Pachacuti. It is often referred to as the 'Lost City of the Incas' and attracts millions of tourists each year."
    },
    {
      "question": "What famous museum in Europe opened its doors in 1793 and showcases iconic works like the Mona Lisa and the Venus de Milo?",
      "answer": { "label": "Louvre Museum, Paris", "lat": 48.8606, "lng": 2.3376 },
      "context": "The Louvre Museum was originally a fortress and later became a royal palace before opening as a public gallery. It is the world's largest art museum and a historic monument in France."
    },
    {
      "question": "Where, in the Middle East, did one of the earliest known cities grow, famed for its 'hanging gardens' as a wonder of the ancient world?",
      "answer": { "label": "Babylon, Iraq", "lat": 32.5364, "lng": 44.4200 },
      "context": "Babylon is best known for its role as the capital of ancient Mesopotamia and its association with the legendary Hanging Gardens, one of the Seven Wonders of the Ancient World."
    },
    {
      "question": "Which space exploration site in the United States launched the Apollo 11 mission, the first manned mission to land on the moon?",
      "answer": { "label": "Kennedy Space Center, Florida", "lat": 28.5721, "lng": -80.6480 },
      "context": "The Kennedy Space Center has been the launch site for every U.S. human space flight since 1968 and played a crucial role during the Space Race."
    },
    {
      "question": "What city, previously known as Edo, features the Imperial Palace and is a bustling capital in Asia?",
      "answer": { "label": "Tokyo, Japan", "lat": 35.6828, "lng": 139.7595 },
      "context": "Tokyo's Imperial Palace is the main residence of the Emperor of Japan and sits on the former site of Edo Castle. Today, Tokyo is known for being a major cultural and financial center."
    }
  ]
}