```json
{
  "questions": [
    {
      "question": "Which capital city is home to a UNESCO World Heritage Site that is a royal complex dating back to the 11th century and has served both religious and governmental roles in Central Europe?",
      "answer": { "label": "Prague Castle, Prague", "lat": 50.0909, "lng": 14.4005 },
      "context": "This site is known for its architectural styles ranging from Gothic to Baroque and once was the seat of kings of Bohemia."
    },
    {
      "question": "Which site of a historical battle is located in a Belgian town known for being the last stand of Napoleon Bonaparte in 1815?",
      "answer": { "label": "Waterloo Battlefield, Waterloo", "lat": 50.6791, "lng": 4.4054 },
      "context": "This battlefield marked the final defeat of Napoleon, leading to the end of his rule as Emperor of the French."
    },
    {
      "question": "Which modern architectural marvel, completed in 2010 in Dubai, is the tallest structure and building in the world?",
      "answer": { "label": "Burj Khalifa, Dubai", "lat": 25.1972, "lng": 55.2744 },
      "context": "Standing at 828 meters, this skyscraper features a luxurious hotel, residences, and observation decks offering stunning views of the city and desert."
    },
    {
      "question": "Which famous museum, established in 1793 in Europe, is home to the Mona Lisa and Venus de Milo among thousands of other works?",
      "answer": { "label": "The Louvre, Paris", "lat": 48.8606, "lng": 2.3376 },
      "context": "Located on the Right Bank of the Seine, this museum is the world's largest art museum and a historic monument in France."
    },
    {
      "question": "Located in the jungles of Guatemala, which ancient ruin was once a major city of the Maya civilization and is known for its towering temples and palaces?",
      "answer": { "label": "Tikal, Tikal National Park", "lat": 17.2214, "lng": -89.6299 },
      "context": "This UNESCO World Heritage Site was one of the most powerful kingdoms of the ancient Maya and contains some of the tallest pre-Columbian structures in the Americas."
    }
  ]
}
```