```json
{
  "questions": [
    {
      "question": "Which ancient ruin, recognized as a UNESCO World Heritage Site, was first discovered in 1911 and sits high above the Urubamba River Valley in Peru?",
      "answer": { "label": "Machu Picchu, Peru", "lat": -13.1630, "lng": -72.5450 },
      "context": "Built in the 15th century and later abandoned, this Incan citadel is renowned for its dry-stone construction and panoramic views."
    },
    {
      "question": "Which museum, located on an island in the Seine River, was once a royal palace and became a public museum in 1793, displaying famous works like the Mona Lisa?",
      "answer": { "label": "Louvre Museum, Paris, France", "lat": 48.8606, "lng": 2.3376 },
      "context": "Home to thousands of artworks, this museum in France's capital is known for its iconic glass pyramid entrance."
    },
    {
      "question": "What famous museum, designed by Frank Lloyd Wright, is known for its unique circular structure and hosts modern and contemporary art exhibitions in New York?",
      "answer": { "label": "Solomon R. Guggenheim Museum, New York City, USA", "lat": 40.7830, "lng": -73.9590 },
      "context": "Opened in 1959, this museum's spiral rotunda features an extensive collection of Impressionist, Post-Impressionist, and Modern art."
    },
    {
      "question": "Which space exploration site is known for launching the Apollo missions and is situated on an island off the coast of Florida?",
      "answer": { "label": "Kennedy Space Center, Merritt Island, USA", "lat": 28.5721, "lng": -80.6480 },
      "context": "This NASA center is famed for its role in sending the first humans to the Moon and houses iconic launchpads."
    },
    {
      "question": "Located in the city known for the Queen's Guard and red buses, which famous museum offers free public access to a vast collection that spans over two million years of history and culture?",
      "answer": { "label": "British Museum, London, UK", "lat": 51.5194, "lng": -0.1270 },
      "context": "This museum opened in 1759 and is famous for artifacts such as the Rosetta Stone and the Elgin Marbles."
    }
  ]
}
```