{
  "questions": [
    {
      "question": "Which UNESCO World Heritage Site in China is famed for its towering limestone pillars, one of which inspired the 'Hallelujah Mountains' in the movie 'Avatar'?",
      "answer": { "label": "Zhangjiajie National Forest Park, China", "lat": 29.32, "lng": 110.46 },
      "context": "Designated as a World Heritage Site in 1992 for its unique karst landscape, this park has over 3,000 narrow rock pillars and is a popular tourist destination."
    },
    {
      "question": "What is the UNESCO World Heritage Site where the famous Sun Temple was built in the 13th century, reflecting the grandeur of the Kalinga architecture?",
      "answer": { "label": "Konark Sun Temple, India", "lat": 19.89, "lng": 86.09 },
      "context": "Built in 1255 CE, this temple is shaped like a giant chariot with elaborately carved stone wheels, pillars, and walls."
    },
    {
      "question": "Which UNESCO World Heritage Site in Peru encompasses a ruined Inca city, perched on a mountain ridge, and is one of the New Seven Wonders of the World?",
      "answer": { "label": "Machu Picchu, Peru", "lat": -13.16, "lng": -72.55 },
      "context": "Rediscovered in 1911 by Hiram Bingham, this 15th-century site is renowned for its sophisticated dry-stone construction that fuses huge blocks without the use of mortar."
    },
    {
      "question": "What UNESCO World Heritage Site in Italy is home to the largest Gothic cathedral and was the epicenter of the Renaissance in Southeastern Europe?",
      "answer": { "label": "Cathedral, Torre Civica, and Piazza Grande, Modena, Italy", "lat": 44.65, "lng": 10.92 },
      "context": "The Cathedral of Modena, begun in 1099, is an exceptional testimony to the cultural traditions of the area during the 12th century."
    },
    {
      "question": "Which UNESCO World Heritage Site in Australia, known for its unique rock formations, was considered sacred by the indigenous Anangu people long before it became a popular tourist destination?",
      "answer": { "label": "Uluru-Kata Tjuta National Park, Australia", "lat": -25.34, "lng": 131.03 },
      "context": "Uluru, also known as Ayers Rock, is a massive sandstone monolith formed about 550 million years ago and is a key symbol of Australia."
    }
  ]
}