{
  "questions": [
    {
      "question": "Where is the world's tallest building located, a modern architectural marvel completed in 2010?",
      "answer": { "label": "Burj Khalifa, Dubai", "lat": 25.1972, "lng": 55.2744 },
      "context": "This skyscraper in the United Arab Emirates stands at a staggering 828 meters tall and has over 160 habitable floors."
    },
    {
      "question": "Which historical battle site saw a decisive victory for American forces in 1781, effectively ending the American Revolutionary War?",
      "answer": { "label": "Yorktown Battlefield, Virginia", "lat": 37.2387, "lng": -76.5060 },
      "context": "This battle was the last major engagement of the American Revolution, where British General Cornwallis surrendered to George Washington."
    },
    {
      "question": "Which famous museum, featuring the Mona Lisa, is housed in a former royal palace?",
      "answer": { "label": "Louvre Museum, Paris", "lat": 48.8606, "lng": 2.3376 },
      "context": "Located in France, this museum is one of the world's largest and most visited, showcasing works from antiquity to the 19th century."
    },
    {
      "question": "Where can you find the ancient ruins of a once-thriving city that was buried by the eruption of Mount Vesuvius in 79 AD?",
      "answer": { "label": "Pompeii, Italy", "lat": 40.7465, "lng": 14.4989 },
      "context": "These ruins provide a unique snapshot of Roman life, preserved under volcanic ash for centuries and rediscovered in the 18th century."
    },
    {
      "question": "Which capital city hosts a major modern architectural marvel, the Sydney Opera House, recognized by its distinctive sail-like design?",
      "answer": { "label": "Sydney, Australia", "lat": -33.8568, "lng": 151.2153 },
      "context": "This iconic venue, completed in 1973, not only hosts performing arts but is also a UNESCO World Heritage Site known worldwide for its unique architecture."
    }
  ]
}