{
  "questions": [
    {
      "question": "Where can you find a famous modern architectural marvel designed by Antoni Gaudí which combines Gothic and Art Nouveau styles, still under construction since 1882?",
      "answer": { "label": "Sagrada Família, Barcelona", "lat": 41.4036, "lng": 2.1744 },
      "context": "This basilica in Spain is one of the most visited monuments in the world, recognized for its unique design and intricate facades."
    },
    {
      "question": "What historical battle site in Belgium marks the defeat of Napoleon Bonaparte in 1815, sealing the fate of his empire?",
      "answer": { "label": "Waterloo Battlefield, Waterloo", "lat": 50.6806, "lng": 4.4128 },
      "context": "The Battle of Waterloo was a turning point in European history, ending Napoleon's reign and leading to his exile."
    },
    {
      "question": "At which famous museum can you view one of the world's most famous paintings, the Mona Lisa, housed in a former royal palace in Paris, France?",
      "answer": { "label": "Louvre Museum, Paris", "lat": 48.8606, "lng": 2.3376 },
      "context": "The museum is the world's most-visited art museum and a historic monument in Paris, featuring over 38,000 objects."
    },
    {
      "question": "Which ancient ruin located in Peru is known for its well-preserved Inca city situated at an altitude of 2,430 meters in the Andes Mountains?",
      "answer": { "label": "Machu Picchu, Peru", "lat": -13.1631, "lng": -72.5450 },
      "context": "This 15th-century Inca citadel is invaluable for its archaeological significance and stunning mountain scenery."
    },
    {
      "question": "Where is the space exploration site located in Kazakhstan, known as the site for the first human-launch into space in 1961?",
      "answer": { "label": "Baikonur Cosmodrome, Baikonur", "lat": 45.965, "lng": 63.305 },
      "context": "The Cosmodrome is the world's first and largest space launch facility, having launched the historic Vostok 1 flight by Yuri Gagarin."
    }
  ]
}