```json
{
  "questions": [
    {
      "question": "Which modern architectural marvel in the United Arab Emirates is famously known for its sail-like structure and is located in a city that was just a fishing village 50 years ago?",
      "answer": { "label": "Burj Al Arab, Dubai", "lat": 25.1418, "lng": 55.1851 },
      "context": "Opened in 1999, it is one of the tallest hotels in the world and has become an icon of luxury in the city."
    },
    {
      "question": "What museum in Paris is home to Leonardo da Vinci's 'Mona Lisa' and was originally built as a fortress in the late 12th century under Philip II?",
      "answer": { "label": "Louvre Museum, Paris", "lat": 48.8606, "lng": 2.3376 },
      "context": "This museum is the world's most-visited art museum and a historic monument, transformed into a public museum in 1793."
    },
    {
      "question": "Which ancient ruin is located at the top of a mountain ridge in Peru, often linked with the Inca civilization and is thought to have been an estate for the Inca emperor Pachacuti?",
      "answer": { "label": "Machu Picchu, Peru", "lat": -13.1631, "lng": -72.5450 },
      "context": "Rediscovered in 1911 by Hiram Bingham, this site is a symbol of the Inca Empire and a UNESCO World Heritage Site since 1983."
    },
    {
      "question": "Which historical battle site in Belgium is known for the defeat of Napoleon Bonaparte in 1815, significantly changing the course of European history?",
      "answer": { "label": "Waterloo, Belgium", "lat": 50.6805, "lng": 4.4120 },
      "context": "The Battle of Waterloo marked the end of the Napoleonic Wars and the era of a major continental ruler."
    },
    {
      "question": "What capital city in the Southern Hemisphere is known for its multiple observatories and was the location of a significant radio astronomy discovery in 1964?",
      "answer": { "label": "Canberra, Australia", "lat": -35.2809, "lng": 149.1300 },
      "context": "In 1964, the Parkes Radio Telescope near this city received live TV images of the Apollo 11 moonwalk, bringing it to millions worldwide."
    }
  ]
}
```