{
  "questions": [
    {
      "question": "This UNESCO site in Europe is renowned for its Gothic cathedral that has the tallest spire in the United Kingdom and a historic Magna Carta display. What is this location?",
      "answer": { "label": "Salisbury Cathedral, Salisbury, UK", "lat": 51.063, "lng": -1.337 },
      "context": "Completed in 1258, the cathedral also features a 123-meter tall spire, making it a prominent landmark."
    },
    {
      "question": "Which modern architectural marvel in Asia is the world's tallest structure and features an observatory on the 148th floor?",
      "answer": { "label": "Burj Khalifa, Dubai, UAE", "lat": 25.197, "lng": 55.274 },
      "context": "Standing at 828 meters, this skyscraper has become an iconic symbol of modern engineering and luxury."
    },
    {
      "question": "This historical battle site in North America witnessed a pivotal Revolutionary War battle in 1777 and now serves as a popular park. What is the location?",
      "answer": { "label": "Saratoga National Historical Park, Stillwater, USA", "lat": 43.000, "lng": -73.649 },
      "context": "The Battle of Saratoga is often cited as the turning point in the American Revolution."
    },
    {
      "question": "Name the famous museum in Europe that houses the renowned painting 'The Night Watch' by Rembrandt.",
      "answer": { "label": "Rijksmuseum, Amsterdam, Netherlands", "lat": 52.360, "lng": 4.885 },
      "context": "This museum, located in the Netherlands, is dedicated to arts, crafts, and history."
    },
    {
      "question": "Identified as an ancient ruin site, which South American location features a series of rock sculptures known as 'The Maiden'? ",
      "answer": { "label": "Tiwanaku, Bolivia", "lat": -16.555, "lng": -68.679 },
      "context": "This archaeological site was part of a civilization that peaked around 600-800 AD and is a UNESCO World Heritage Site."
    }
  ]
}