{
  "questions": [
    {
      "question": "Where is the ancient Roman site that housed the Praetorian Guard in Italy?",
      "answer": { "label": "Arch of Constantine, Rome", "lat": 41.8894, "lng": 12.4923 },
      "context": "This triumphal arch was completed in 315 AD to commemorate Constantine I's victory at the Battle of Milvian Bridge."
    },
    {
      "question": "Which UNESCO World Heritage Site, known for its stunning example of rock-cut architecture, is located in southern Jordan?",
      "answer": { "label": "Petra, Jordan", "lat": 30.3285, "lng": 35.4444 },
      "context": "This archaeological site was the capital of the Nabataean Kingdom during the 4th century BC."
    },
    {
      "question": "Identify the Russian museum that is both an architectural marvel and home to one of the largest art collections in the world.",
      "answer": { "label": "The State Hermitage Museum, St. Petersburg", "lat": 59.939, "lng": 30.3158 },
      "context": "Founded in 1764 by Catherine the Great, it's famed for its Baroque architecture as part of the Winter Palace complex."
    },
    {
      "question": "Where is the iconic symbol of ancient Greek civilization, perched on a rocky outcrop overlooking Athens?",
      "answer": { "label": "The Acropolis, Athens", "lat": 37.9715, "lng": 23.7257 },
      "context": "The Acropolis of Athens, dating back to the 5th century BC, includes the Parthenon."
    },
    {
      "question": "What is the historic capital city of the Inca Empire known for its well-preserved ruins located in the Andes Mountains of Peru?",
      "answer": { "label": "Cusco, Peru", "lat": -13.532, "lng": -71.9675 },
      "context": "Founded in the 15th century, it's famous for its Spanish Colonial architecture on top of Incan foundations."
    }
  ]
}