{
  "questions": [
    {
      "question": "Which UNESCO site in the Middle East is known for its monumental limestone tombs carved into the cliffs by the Nabataeans around the 1st century CE?",
      "answer": { "label": "Petra, Jordan", "lat": 30.3285, "lng": 35.4444 },
      "context": "This archaeological city was once a thriving trading hub and is famous for the rock-cut architecture of the 'Treasury'."
    },
    {
      "question": "What modern architectural marvel located in the United Arab Emirates holds the record for the tallest artificial structure in the world since its completion in 2010?",
      "answer": { "label": "Burj Khalifa, Dubai", "lat": 25.1972, "lng": 55.2744 },
      "context": "This skyscraper reaches a staggering height of 828 meters and features a design that reflects Islamic architecture."
    },
    {
      "question": "Which historical battle site in the United States is recognized for the decisive 1863 confrontation during the Civil War, which turned the tide in favor of the Union forces?",
      "answer": { "label": "Gettysburg, Pennsylvania", "lat": 39.8301, "lng": -77.2311 },
      "context": "President Abraham Lincoln later delivered his iconic Gettysburg Address at this site."
    },
    {
      "question": "Which famous museum in France was originally a royal palace and now houses thousands of works, including the acclaimed painting 'Mona Lisa'?",
      "answer": { "label": "Louvre Museum, Paris", "lat": 48.8606, "lng": 2.3376 },
      "context": "This museum is the world's most visited and occupies former royal quarters, showcasing art from ancient civilizations to the 19th century."
    },
    {
      "question": "Which ancient ruin in Greece is a former religious center linked to athletic and religious festivals, and said to be the birthplace of the Olympic Games?",
      "answer": { "label": "Olympia, Greece", "lat": 37.637, "lng": 21.6297 },
      "context": "This site was dedicated to Zeus and hosted the ancient Olympic Games beginning in 776 BC."
    }
  ]
}