{
  "questions": [
    {
      "question": "Which UNESCO World Heritage Site in Italy is famous for its Leaning Tower, a structural marvel dating back to 1173?",
      "answer": { "label": "Piazza del Duomo, Pisa, Italy", "lat": 43.723, "lng": 10.3966 },
      "context": "The site has been a critical center for European art and religion, featuring the iconic Leaning Tower, an unintended wonder of architecture."
    },
    {
      "question": "Which modern architectural marvel in the UAE is known for its sail-like design and the influence it has had on Dubai's skyline since opening in 1999?",
      "answer": { "label": "Burj Al Arab, Dubai, UAE", "lat": 25.1416, "lng": 55.1853 },
      "context": "This luxury hotel is built on an artificial island and has become a symbol of modern Dubai, standing at 321 meters tall."
    },
    {
      "question": "What is the location of the ancient ruins in Greece considered the birthplace of the Olympic Games and home to the Statue of Zeus, one of the Seven Wonders of the Ancient World?",
      "answer": { "label": "Olympia, Greece", "lat": 37.638, "lng": 21.6294 },
      "context": "These ruins include the remains of ancient temples and arenas where athletes competed in the first recorded Olympic Games in 776 BC."
    },
    {
      "question": "In which city is the famous museum located that houses the Mona Lisa and the Venus de Milo, considered one of the world's largest art museums?",
      "answer": { "label": "Louvre Museum, Paris, France", "lat": 48.8606, "lng": 2.3376 },
      "context": "The Louvre, originally a fortress, was transformed into a public museum after the French Revolution in 1793."
    },
    {
      "question": "Which capital city in South America is known for its historic center and Presidential Palace, and was a focal point during the Chilean War of Independence?",
      "answer": { "label": "Santiago, Chile", "lat": -33.4489, "lng": -70.6654 },
      "context": "Santiago's Plaza de Armas is surrounded by important landmarks and has played a key role since the city's founding in 1541."
    }
  ]
}