{
  "questions": [
    {
      "question": "Where is the longest continuously open museum in the world, which houses the Rosetta Stone, located?",
      "answer": { "label": "The British Museum, London", "lat": 51.5194, "lng": -0.1270 },
      "context": "The British Museum, established in 1753, has been open for over 260 years with no entry fee, and its collection includes the Elgin Marbles."
    },
    {
      "question": "What famous war cemetery, established in 1956, is built near the site of the Normandy landings of World War II?",
      "answer": { "label": "Normandy American Cemetery, Colleville-sur-Mer", "lat": 49.3599, "lng": -0.8574 },
      "context": "This cemetery commemorates the bravery of American soldiers who participated in D-Day, buried near Omaha Beach."
    },
    {
      "question": "Which modern architectural marvel in the Middle East, designed by Jean Nouvel, features a massive domed structure inspired by local traditions?",
      "answer": { "label": "Louvre Abu Dhabi, Saadiyat Island", "lat": 24.5344, "lng": 54.3954 },
      "context": "Opened in 2017, the museum reflects a 'rain of light' effect and houses an extensive collection, including works by Leonardo da Vinci."
    },
    {
      "question": "Which ancient city on the Silk Road, one of the best-preserved Pamirian cities, is known for its vast fortress and palatial structures in China?",
      "answer": { "label": "Jiaohe Ruins, Turpan", "lat": 42.9856, "lng": 89.1925 },
      "context": "Jiaohe was a pivotal city along the Silk Road over 2,000 years ago, with structures made from compressed earth."
    },
    {
      "question": "What UNESCO World Heritage Site, a Roman architectural wonder known for its massive amphitheater, is located on the Arabian Peninsula?",
      "answer": { "label": "Colosseum of El Jem, Tunisia", "lat": 35.3006, "lng": 10.7069 },
      "context": "Built in 238 AD, the El Jem amphitheater is one of the largest Roman amphitheaters in the world and could hold 35,000 spectators."
    }
  ]
}