{
  "questions": [
    {
      "question": "Which UNESCO World Heritage Site in China, known for its collection of 8,000 life-sized statues, was discovered by local farmers in 1974?",
      "answer": { "label": "Terracotta Army, China", "lat": 34.39, "lng": 109.28 },
      "context": "This army was built to protect the first Emperor of China, Qin Shi Huang, in the afterlife."
    },
    {
      "question": "Which UNESCO World Heritage Site in the United States was the first cathedral built west of the Mississippi River and is known for its Municipal Archives?",
      "answer": { "label": "Cathedral of St. Louis, St. Louis, USA", "lat": 38.63, "lng": -90.19 },
      "context": "The Cathedral is a centerpiece of the French Quarter and has played a significant role in the city’s Catholic and cultural history."
    },
    {
      "question": "Which iconic UNESCO World Heritage Site in Egypt, built circa 2560–2540 BC, is famously guarded by a limestone statue with a lion's body and a human head?",
      "answer": { "label": "Great Sphinx of Giza, Egypt", "lat": 29.9753, "lng": 31.1376 },
      "context": "The Sphinx is located on the Giza Plateau and is believed to represent Pharaoh Khafre."
    },
    {
      "question": "Mentioned in Homer's epic poems, which UNESCO World Heritage Site in Turkey is believed to be the ancient city destroyed during the Trojan War?",
      "answer": { "label": "Troy Archaeological Site, Turkey", "lat": 39.95, "lng": 26.24 },
      "context": "Once the focus of legends, modern archaeological digs have reignited interest in Troy's historical significance."
    },
    {
      "question": "Which site in the Andes of Peru, often obscured by mist and associated with astronomical and religious events, is one of the New Seven Wonders of the World and a UNESCO World Heritage site?",
      "answer": { "label": "Machu Picchu, Peru", "lat": -13.1631, "lng": -72.5450 },
      "context": "This Incan citadel was built in the 15th century and attracts millions of visitors with its unique architecture and breathtaking views."
    }
  ]
}