```json
{
  "questions": [
    {
      "question": "Which architectural marvel, located in the United Arab Emirates, holds the record for the world's tallest building and was completed in 2010?",
      "answer": { "label": "Burj Khalifa, Dubai", "lat": 25.1972, "lng": 55.2744 },
      "context": "The Burj Khalifa is renowned for its height of 828 meters and is a symbol of the country's rapid modernization and economic growth."
    },
    {
      "question": "Which UNESCO World Heritage Site in Peru is an ancient Incan city, known for its sophisticated dry-stone construction and scenic location in the Andes?",
      "answer": { "label": "Machu Picchu", "lat": -13.1631, "lng": -72.5450 },
      "context": "Discovered in 1911, Machu Picchu is believed to have been an estate for the Inca emperor Pachacuti."
    },
    {
      "question": "Which historical battle site in Belgium was the location of Napoleon's final defeat in 1815?",
      "answer": { "label": "Waterloo Battlefield, Belgium", "lat": 50.6800, "lng": 4.4124 },
      "context": "The Battle of Waterloo marked the end of the Napoleonic Wars and led to the exile of Napoleon Bonaparte."
    },
    {
      "question": "Which capital city is home to the iconic Parthenon, an ancient temple dedicated to the goddess Athena?",
      "answer": { "label": "Athens, Greece", "lat": 37.9715, "lng": 23.7267 },
      "context": "Located on the Acropolis, the Parthenon is a symbol of classical Greece and democracy, completed in 438 BC."
    },
    {
      "question": "Which space center in the United States is the primary launch facility for human spaceflight missions since 1968?",
      "answer": { "label": "Kennedy Space Center, Florida", "lat": 28.5721, "lng": -80.6480 },
      "context": "Located on Merritt Island, Kennedy Space Center is where NASA launched Apollo, Skylab, and Space Shuttle missions."
    }
  ]
}
```