{
  "questions": [
    {
      "question": "Which modern architectural marvel in Sydney was opened by Queen Elizabeth II in 1973 and is famous for its shell-like structure?",
      "answer": { "label": "Sydney Opera House, Australia", "lat": -33.8568, "lng": 151.2153 },
      "context": "This UNESCO World Heritage Site is an iconic symbol of Australia and hosts over 1,500 performances annually."
    },
    {
      "question": "What historical battle site in Greece marks the location of the legendary last stand of King Leonidas and his 300 Spartans against the Persian army?",
      "answer": { "label": "Thermopylae, Greece", "lat": 38.7960, "lng": 22.5364 },
      "context": "The Battle of Thermopylae in 480 BC is famed for the courage of the vastly outnumbered Greek forces, and the site today features a monument to their bravery."
    },
    {
      "question": "Which famous museum in Madrid holds an extensive collection of works by Goya, Velázquez, and other Spanish masters?",
      "answer": { "label": "Museo del Prado, Spain", "lat": 40.4138, "lng": -3.6921 },
      "context": "Opened to the public in 1819, this museum attracts art lovers from around the world and hosts masterpieces like Velázquez's \"Las Meninas.\""
    },
    {
      "question": "Which UNESCO World Heritage Site in Cambodia is the largest religious monument in the world, initially constructed as a Hindu temple for the Khmer Empire?",
      "answer": { "label": "Angkor Wat, Cambodia", "lat": 13.4125, "lng": 103.8670 },
      "context": "Built in the early 12th century by King Suryavarman II, this temple complex later transitioned into a Buddhist site and is a symbol of Cambodia."
    },
    {
      "question": "What ancient ruin in Peru is renowned for its archaeological significance and scenic beauty, rediscovered by Hiram Bingham in 1911?",
      "answer": { "label": "Machu Picchu, Peru", "lat": -13.1631, "lng": -72.5450 },
      "context": "Located in the Andes Mountains, this Incan citadel is a popular tourist destination and considered one of the New Seven Wonders of the World."
    }
  ]
}