```json
{
  "questions": [
    {
      "question": "Which UNESCO World Heritage site in Europe is known for its Renaissance architecture and was the setting for Shakespeare's 'Hamlet'?",
      "answer": { "label": "Kronborg Castle, Denmark", "lat": 56.0389, "lng": 12.6136 },
      "context": "This castle is famously recognized as Elsinore in Shakespeare's play and played a crucial role in the history of Northern Europe due to its strategic location at the Sound."
    },
    {
      "question": "What historical battle site, located in Belgium, was the scene of Napoleon's last defeat in 1815?",
      "answer": { "label": "Waterloo, Belgium", "lat": 50.6806, "lng": 4.4125 },
      "context": "The Battle of Waterloo ended Napoleon Bonaparte’s rule as Emperor of the French, resulting in a coalition victory."
    },
    {
      "question": "Which famous museum in Europe, originally established as a fortress in the late 12th century, houses Leonardo da Vinci's 'Mona Lisa'?",
      "answer": { "label": "Louvre Museum, Paris", "lat": 48.8606, "lng": 2.3376 },
      "context": "Originally built as a fortress by Philip II, the Louvre was transformed into a museum in 1793 after the French Revolution."
    },
    {
      "question": "What ancient ruin in Peru, a UNESCO World Heritage Site, is believed to be a royal estate or sacred religious site for Inca leaders?",
      "answer": { "label": "Machu Picchu, Peru", "lat": -13.1631, "lng": -72.5450 },
      "context": "Built in the 15th century and located in the Andes Mountains, Machu Picchu is famous for its sophisticated dry-stone construction of gigantic blocks that are so perfectly cut that they don’t need mortar."
    },
    {
      "question": "Which space exploration site in Kazakhstan is recognized as the world’s first and largest operational space launch facility, essential for Soviet and Russian space missions?",
      "answer": { "label": "Baikonur Cosmodrome, Kazakhstan", "lat": 45.9650, "lng": 63.3050 },
      "context": "Established in 1955, this site was where Yuri Gagarin launched to become the first human in space in 1961."
    }
  ]
}
```