{
  "questions": [
    {
      "question": "In which European capital would you explore a famous ancient ruin that was once a symbol of the power of the Roman Empire, built in 80 AD?",
      "answer": { "label": "The Colosseum, Rome", "lat": 41.89, "lng": 12.49 },
      "context": "This amphitheater, used for gladiatorial contests and public spectacles, is considered one of the greatest works of Roman architecture."
    },
    {
      "question": "Which famous palace complex in France, pivotal in the events leading up to the French Revolution, is the most visited UNESCO site in the country?",
      "answer": { "label": "Palace of Versailles, Versailles", "lat": 48.80, "lng": 2.12 },
      "context": "Known for its stunning Hall of Mirrors and opulent gardens, it was the royal residence of France's kings before the revolution."
    },
    {
      "question": "Discover the location where the first battle of the American Civil War took place in 1861, marking the start of a significant conflict.",
      "answer": { "label": "Fort Sumter, Charleston", "lat": 32.75, "lng": -79.87 },
      "context": "This sea fort in South Carolina is famed for being the site where the initial shots of the American Civil War were fired."
    },
    {
      "question": "At which museum, located in a city renowned for its art and history, can you view one of the most comprehensive collections of European art, including the work of Da Vinci and Van Gogh?",
      "answer": { "label": "The Louvre Museum, Paris", "lat": 48.86, "lng": 2.34 },
      "context": "Originally a royal palace, this museum now houses thousands of works, including the Mona Lisa and the Venus de Milo."
    },
    {
      "question": "What is the site of the first successful powered flight in 1903 by the Wright brothers, marking a significant milestone in aviation history?",
      "answer": { "label": "Wright Brothers National Memorial, Kill Devil Hills", "lat": 36.02, "lng": -75.67 },
      "context": "Located in North Carolina, this site commemorates the historic flight that changed the course of transportation forever."
    }
  ]
}