{
  "questions": [
    {
      "question": "Which UNESCO site in Mexico is famous for its Temple of the Inscriptions, built during the reign of King Pakal?",
      "answer": { "label": "Palenque, Mexico", "lat": 17.4849, "lng": -92.0469 },
      "context": "This ancient Mayan city is renowned for its architectural complexity and mysterious hieroglyphic inscriptions."
    },
    {
      "question": "Which European capital city is home to the Atomium, a unique modern architectural marvel built for the 1958 World Expo?",
      "answer": { "label": "Brussels, Belgium", "lat": 50.8503, "lng": 4.3517 },
      "context": "This city is also the center of the European Union, making it a significant political hub."
    },
    {
      "question": "Where did the historic Battle of Borodino take place in 1812, marking a turning point in the Napoleonic Wars?",
      "answer": { "label": "Borodino, Russia", "lat": 55.5292, "lng": 35.8249 },
      "context": "This battle is memorialized in Russia with a museum and preserved battlefield, attracting history enthusiasts."
    },
    {
      "question": "Which museum in France holds the record for the world's largest art museum, home to the Mona Lisa?",
      "answer": { "label": "Louvre Museum, Paris", "lat": 48.8606, "lng": 2.3376 },
      "context": "Originally a royal palace, it now houses thousands of works from prehistory to the 21st century."
    },
    {
      "question": "What ancient site in Peru is famous for its Intihuatana stone and terraced fields, often visited via the Inca Trail?",
      "answer": { "label": "Machu Picchu, Peru", "lat": -13.1631, "lng": -72.5450 },
      "context": "Believed to be a royal estate or religious site, this location is one of the New Seven Wonders of the World."
    }
  ]
}