```json
{
  "questions": [
    {
      "question": "Which modern architectural marvel, completed in 1973, is known for its distinctive white sail-like shells and hosts more than 1,500 performances annually in Australia?",
      "answer": { "label": "Sydney Opera House, Australia", "lat": -33.8568, "lng": 151.2153 },
      "context": "This iconic cultural venue was designed by Danish architect Jørn Utzon and is a UNESCO World Heritage Site."
    },
    {
      "question": "What historical battle site in Belgium, marked by monuments such as the Lion's Mound, was pivotal in ending the Napoleonic Wars in 1815?",
      "answer": { "label": "Battle of Waterloo site, Belgium", "lat": 50.6806, "lng": 4.4128 },
      "context": "This site was where Napoleon Bonaparte faced defeat, cementing the rise of the British Empire."
    },
    {
      "question": "Which famous museum in Paris, once a royal palace, is home to thousands of works of art, including the Mona Lisa?",
      "answer": { "label": "Louvre Museum, Paris", "lat": 48.8606, "lng": 2.3376 },
      "context": "Known as the world’s largest art museum, it became a public museum during the French Revolution."
    },
    {
      "question": "Name the ancient ruin in Greece known for its Parthenon temple and as a symbol of democracy, philosophy, and architecture.",
      "answer": { "label": "Acropolis of Athens, Greece", "lat": 37.9715, "lng": 23.7267 },
      "context": "Built during the 5th century BC, this site is a testament to the advanced civilization of ancient Greece."
    },
    {
      "question": "What space exploration site in Florida has launched every American human space flight since 1968, including those to the moon?",
      "answer": { "label": "Kennedy Space Center, Florida", "lat": 28.5721, "lng": -80.648 },
      "context": "It served as the launch site for the Apollo, Skylab, and Space Shuttle missions."
    }
  ]
}
```