{
  "questions": [
    {
      "question": "Which ancient ruins site in Peru, known as a symbol of the Incan Empire and often called the 'Lost City of the Incas', was built in the 15th century and is situated 2,430 meters above sea level?",
      "answer": { "label": "Machu Picchu, Peru", "lat": -13.1631, "lng": -72.545 },
      "context": "Machu Picchu was rediscovered by Hiram Bingham in 1911 and is a marvel of classical Inca-style architecture."
    },
    {
      "question": "What UNESCO World Heritage Site in France was originally constructed in the 12th century and serves as the burial site of the Kings of France?",
      "answer": { "label": "Basilica of Saint-Denis, France", "lat": 48.9359, "lng": 2.3599 },
      "context": "This basilica is widely recognized as the first example of Gothic architecture and is located in the suburb of Paris."
    },
    {
      "question": "Which famous museum, housing an extensive collection of art and historical artifacts, is located in New York and was established in 1870?",
      "answer": { "label": "The Metropolitan Museum of Art, New York", "lat": 40.7794, "lng": -73.9632 },
      "context": "Known as 'The Met', it is one of the largest art museums in the world and has over two million artworks."
    },
    {
      "question": "Which modern architectural marvel, designed by architect Frank Gehry and completed in 1997, is renowned for its innovative design and is located in the Basque Country of Spain?",
      "answer": { "label": "Guggenheim Museum Bilbao, Spain", "lat": 43.2687, "lng": -2.9332 },
      "context": "The museum is acclaimed for its deconstructivist design and has significantly revitalized the city of Bilbao."
    },
    {
      "question": "What famous dark tourism site, located in Austria, served as a concentration camp during World War II and is now a memorial for the victims?",
      "answer": { "label": "Mauthausen-Gusen Concentration Camp, Austria", "lat": 48.2561, "lng": 14.5072 },
      "context": "Mauthausen was one of the largest labor camps in the Nazi regime and is now a poignant reminder of the Holocaust."
    }
  ]
}