{
  "questions": [
    {
      "question": "Which UNESCO World Heritage Site in Italy is famous for its leaning tower, completed in 1372?",
      "answer": { "label": "Piazza del Duomo, Pisa", "lat": 43.723, "lng": 10.396 },
      "context": "This square is home to the iconic leaning tower and the cathedral, showcasing a stunning example of Romanesque architecture."
    },
    {
      "question": "Where is the world-renowned museum that houses the Mona Lisa and was originally built as a fortress in the 12th century located?",
      "answer": { "label": "Louvre Museum, Paris", "lat": 48.861, "lng": 2.336 },
      "context": "As the world's largest art museum, it became a public museum during the French Revolution."
    },
    {
      "question": "Which ancient ruin, known for its cliffside location and views of the Andes, was built by the Inca Empire in the 15th century?",
      "answer": { "label": "Machu Picchu, Peru", "lat": -13.163, "lng": -72.545 },
      "context": "This site, believed to be an estate for the Inca emperor, was brought to international attention in 1911 by Hiram Bingham."
    },
    {
      "question": "Identify the site of the 1969 Apollo 11 launch, where humanity took its first steps towards setting foot on the Moon.",
      "answer": { "label": "Kennedy Space Center, Florida", "lat": 28.573, "lng": -80.649 },
      "context": "Located on Merritt Island, this center served as the launch point for the first manned moon mission."
    },
    {
      "question": "What dark tourism site in Bulgaria was a ceremonial meeting place for the Bulgarian Communist Party, now abandoned?",
      "answer": { "label": "Buzludzha Monument, Bulgaria", "lat": 42.738, "lng": 25.395 },
      "context": "Constructed in 1981, this UFO-shaped building symbolized the power of socialist Bulgaria and now attracts adventurous tourists."
    }
  ]
}