{
  "questions": [
    {
      "question": "Which UNESCO World Heritage Site in Italy is known for its extensive collection of ancient Roman houses, streets, and public baths, buried by a catastrophic eruption in 79 AD?",
      "answer": { "label": "Pompeii, Italy", "lat": 40.75, "lng": 14.49 },
      "context": "The eruption of Mount Vesuvius that buried this site is one of the most famous in European history."
    },
    {
      "question": "Which modern architectural marvel in Malaysia is one of the tallest twin tower structures in the world, completed in 1998?",
      "answer": { "label": "Petronas Towers, Malaysia", "lat": 3.157, "lng": 101.712 },
      "context": "These towers were the tallest buildings in the world until 2004, featuring a skybridge between them."
    },
    {
      "question": "Where did the historic Battle of Hastings occur in 1066, leading to Norman conquest of England?",
      "answer": { "label": "Battle Abbey, England", "lat": 50.9167, "lng": 0.4871 },
      "context": "The battle marked the start of a new era in English history with Duke William of Normandy's victory."
    },
    {
      "question": "Which famous museum in France houses the iconic painting known as 'Mona Lisa'?",
      "answer": { "label": "Louvre Museum, France", "lat": 48.8606, "lng": 2.3376 },
      "context": "This museum is the world's largest art museum and a historic monument in the heart of Paris."
    },
    {
      "question": "Which ancient ruin in Jordan is famed for its rock-cut architecture and water conduit system, once the capital of the Nabataean Kingdom?",
      "answer": { "label": "Petra, Jordan", "lat": 30.3285, "lng": 35.4444 },
      "context": "Known as the 'Rose City' due to the color of the stone, it is one of the New7Wonders of the World."
    }
  ]
}