```json
{
  "questions": [
    {
      "question": "Which UNESCO World Heritage Site in Asia, known for its remarkable cave art, has over 60,000 figures that span periods from the Upper Paleolithic to the Middle Ages?",
      "answer": { "label": "Cave of Altamira, Spain", "lat": 43.38, "lng": -4.12 },
      "context": "Located in northern Spain, this site provides a vivid pictorial record of life during the Stone Age, and is famously noted for its depiction of large mammals."
    },
    {
      "question": "Which UNESCO World Heritage Site is an ancient city that became one of the most famous archaeological locations in the Middle East, known for its rock-carved architecture and water conduit system?",
      "answer": { "label": "Petra, Jordan", "lat": 30.33, "lng": 35.44 },
      "context": "This site, also called 'The Rose City', was the capital of the Nabataean Kingdom and is renowned for structures such as the Treasury, featured in many films."
    },
    {
      "question": "Identify this UNESCO site in Africa that holds the ruins of an ancient city which was once the capital of a powerful kingdom known for its stone walls and massive tower structures.",
      "answer": { "label": "Great Zimbabwe, Zimbabwe", "lat": -20.27, "lng": 30.93 },
      "context": "This medieval city is emblematic of the history of the African continent, known for the Great Enclosure, with a complete wall over 11 meters high."
    },
    {
      "question": "What is the site of the largest ancient amphitheater ever built, designated a UNESCO World Heritage Site, known for gladiatorial contests and public spectacles?",
      "answer": { "label": "Colosseum, Italy", "lat": 41.89, "lng": 12.49 },
      "context": "Located in Rome, this iconic structure could house tens of thousands of spectators, has influenced stadium architecture through centuries."
    },
    {
      "question": "Which UNESCO World Heritage Site, located in Central America, is known for its Mayan pyramids and as a prominent city founded before 600 AD?",
      "answer": { "label": "Tikal, Guatemala", "lat": 17.22, "lng": -89.63 },
      "context": "In modern-day Guatemala, Tikal was an influential cultural and political center, featuring towering pyramid temples amid the jungle."
    }
  ]
}
```