{
  "questions": [
    {
      "question": "Which museum, located in the capital of a European country, is renowned for housing the Mona Lisa and is one of the largest and most visited museums in the world?",
      "answer": { "label": "The Louvre Museum, Paris", "lat": 48.8606, "lng": 2.3376 },
      "context": "Before becoming a museum in 1793, this building was originally a fortress and later a royal palace in France."
    },
    {
      "question": "What is the ancient ruin located in the Andes Mountains, once a 15th-century Inca civilization site, known worldwide for its sophisticated dry-stone construction?",
      "answer": { "label": "Machu Picchu, Peru", "lat": -13.1631, "lng": -72.545 },
      "context": "Discovered to the outside world by Hiram Bingham in 1911, this site was an estate for the Inca emperor Pachacuti."
    },
    {
      "question": "At which NASA facility, located in the southern United States, were the Apollo missions controlled, making it a key site in space exploration history?",
      "answer": { "label": "Johnson Space Center, Houston", "lat": 29.5609, "lng": -95.0897 },
      "context": "This center was the home for Mission Control during the moon landings and is still active in controlling the International Space Station operations."
    },
    {
      "question": "Which UNESCO World Heritage Site in Italy, buried by a volcanic eruption in 79 AD, offers unparalleled insight into Roman life?",
      "answer": { "label": "Pompeii, Italy", "lat": 40.7484, "lng": 14.4847 },
      "context": "The nearby Mount Vesuvius eruption preserved this city's buildings, artifacts, and even some of its citizens in volcanic ash."
    },
    {
      "question": "Which historical battle site in Belgium, where Napoleon Bonaparte faced decisive defeat in 1815, marked the end of the Napoleonic Wars?",
      "answer": { "label": "Waterloo, Belgium", "lat": 50.6806, "lng": 4.4128 },
      "context": "This battle was fought near a town around 15 kilometers south of Brussels and involved various European coalitions."
    }
  ]
}