```json
{
  "questions": [
    {
      "question": "Which UNESCO site in China is famous for the terracotta sculptures depicting the armies of the first Emperor, founded in 1974?",
      "answer": { "label": "Terracotta Army, Xi'an", "lat": 34.3846, "lng": 109.2765 },
      "context": "This site, located in Shaanxi province, contains over 8,000 soldiers and is considered one of the greatest archaeological discoveries of the 20th century."
    },
    {
      "question": "Which modern architectural marvel in France is known for its high-speed rail terminal and its futuristic design by Santiago Calatrava inaugurated in 1994?",
      "answer": { "label": "Lyon-Saint-Exupéry TGV Station, France", "lat": 45.7219, "lng": 5.0807 },
      "context": "Situated close to Lyon, this station's unique design resembles a bird in flight and serves as a key hub for TGV trains."
    },
    {
      "question": "At which historical battle site in Belgium, the showdown between Napoleon and Duke of Wellington took place in 1815?",
      "answer": { "label": "Battle of Waterloo Site, Waterloo", "lat": 50.6801, "lng": 4.4049 },
      "context": "This battle ended Napoleon's rule as Emperor and dramatically changed European political landscapes."
    },
    {
      "question": "Which famous museum in Spain houses the world's largest and most comprehensive collection of Salvador Dalí's works, opened in 1974?",
      "answer": { "label": "Dalí Theatre and Museum, Figueres", "lat": 42.2675, "lng": 2.9599 },
      "context": "Built upon the ruins of a former theater, this museum in Catalonia attracts art lovers with its surrealist masterpieces."
    },
    {
      "question": "What ancient ruin in Peru is known as the 'Lost City of the Incas' and was re-discovered in 1911 by Hiram Bingham?",
      "answer": { "label": "Machu Picchu, Peru", "lat": -13.1631, "lng": -72.5450 },
      "context": "High in the Andes Mountains, this Incan citadel is renowned for its sophisticated dry-stone construction that fuses huge blocks without the use of mortar."
    }
  ]
}
```