{
  "questions": [
    {
      "question": "Which UNESCO site was the ancient ceremonial center of the Zapotec civilization located in modern-day Mexico?",
      "answer": { "label": "Monte Albán, Mexico", "lat": 17.043, "lng": -96.767 },
      "context": "Founded around 500 BC, this site represents the oldest cities of Mesoamerica and offers panoramic views of the Oaxaca Valley."
    },
    {
      "question": "Which modern architectural marvel features the world's tallest observation deck and is located in the United Arab Emirates?",
      "answer": { "label": "Burj Khalifa, Dubai", "lat": 25.1972, "lng": 55.2744 },
      "context": "Completed in 2010 and standing at over 828 meters tall, this skyscraper has reshaped the Dubai skyline and offers breathtaking views from its observation decks."
    },
    {
      "question": "Which historical battle site, located in Belgium, marked the end of Napoleon Bonaparte's rule in 1815?",
      "answer": { "label": "Waterloo, Belgium", "lat": 50.6808, "lng": 4.4125 },
      "context": "The Battle of Waterloo saw Britain and Prussia decisively defeating Napoleon, leading to his subsequent exile."
    },
    {
      "question": "Which famous museum, located in France, is home to the Mona Lisa and was once a royal palace?",
      "answer": { "label": "Louvre Museum, Paris", "lat": 48.8606, "lng": 2.3376 },
      "context": "The world's largest and most-visited art museum, the Louvre holds over 380,000 objects and artifacts."
    },
    {
      "question": "What ancient ruin, located in Turkey, was considered one of the Seven Wonders of the Ancient World and was a foremost religious center dedicated to Artemis?",
      "answer": { "label": "Temple of Artemis, Ephesus", "lat": 37.9497, "lng": 27.3646 },
      "context": "Once located near present-day Selçuk, the temple was rebuilt three times before its final destruction in 401 AD."
    }
  ]
}