{
  "questions": [
    {
      "question": "Where can you find the ancient ruins believed to be the birthplace of democracy, dating back to the 5th century BC, and which hosts a famous annual marathon?",
      "answer": { "label": "The Acropolis of Athens, Greece", "lat": 37.9715, "lng": 23.7257 },
      "context": "This historic citadel overlooks Athens and includes the Parthenon, built as a temple for the goddess Athena."
    },
    {
      "question": "Which famous museum, known for its iconic glass pyramid entrance completed in 1989, houses the works such as the Mona Lisa and the Venus de Milo?",
      "answer": { "label": "The Louvre Museum, Paris, France", "lat": 48.8606, "lng": 2.3376 },
      "context": "This museum is one of the world’s largest and a historic monument in France, originally a fortress in the 12th century."
    },
    {
      "question": "Identify the capital city that is home to the Red Square, which hosted military parades since the Soviet era and is a UNESCO World Heritage Site.",
      "answer": { "label": "Moscow, Russia", "lat": 55.7558, "lng": 37.6173 },
      "context": "Its name means ‘beautiful’ in Russian, and it’s also famous for the Kremlin and Saint Basil’s Cathedral with multi-colored domes."
    },
    {
      "question": "In which location did a severely destructive volcanic eruption lead to the burial of an entire Roman city in 79 AD, now a popular archaeological site?",
      "answer": { "label": "Pompeii, Italy", "lat": 40.7497, "lng": 14.4869 },
      "context": "The eruption preserved the city under 4 to 6 meters of volcanic ash and pumice."
    },
    {
      "question": "What ancient ruin is considered one of the New Seven Wonders of the World and is located at an altitude of 2,430 meters above sea level?",
      "answer": { "label": "Machu Picchu, Peru", "lat": -13.1631, "lng": -72.5450 },
      "context": "This Incan citadel was known to the West only after its rediscovery by American historian Hiram Bingham in 1911."
    }
  ]
}