```json
{
  "questions": [
    {
      "question": "Which space exploration site in the United States is known for the historic Apollo 11 launch?",
      "answer": { "label": "Kennedy Space Center, Florida", "lat": 28.5721, "lng": -80.6480 },
      "context": "This site hosted the launch of the first manned mission to land on the Moon in 1969, and it now offers visitors the chance to see actual spacecraft from past missions."
    },
    {
      "question": "What iconic building in the United Arab Emirates is considered the tallest structure in the world as of 2023?",
      "answer": { "label": "Burj Khalifa, Dubai", "lat": 25.1972, "lng": 55.2744 },
      "context": "At 828 meters, this architectural marvel stands in the heart of Dubai and offers breathtaking views from its observation decks, attracting millions of tourists annually."
    },
    {
      "question": "Which ancient ruin in Italy was buried by the eruption of Mount Vesuvius in AD 79?",
      "answer": { "label": "Pompeii, Italy", "lat": 40.7460, "lng": 14.4989 },
      "context": "This perfectly preserved Roman city provides a unique glimpse into life during the 1st century and attracts archaeologists and tourists alike."
    },
    {
      "question": "Which famous museum in France houses the Mona Lisa and is considered the largest art museum in the world?",
      "answer": { "label": "Louvre Museum, Paris", "lat": 48.8606, "lng": 2.3376 },
      "context": "Situated in a historic palace on the right bank of the Seine, this museum is famed for its vast collection, including the renowned Leonardo da Vinci painting."
    },
    {
      "question": "Which capital city in Japan is known for its iconic Shibuya Crossing and beautiful cherry blossoms in spring?",
      "answer": { "label": "Tokyo, Japan", "lat": 35.6895, "lng": 139.6917 },
      "context": "This bustling metropolis is a global technology and cultural hub, drawing countless visitors to its vibrant districts and historic sites."
    }
  ]
}
```