{
  "questions": [
    {
      "question": "Which UNESCO World Heritage Site is known for its unique combination of Gothic and Romanesque architecture and was the location of a pivotal church gathering in 1414, focusing on the Papal schism?",
      "answer": { "label": "Konstanz Minster, Constance, Germany", "lat": 47.66, "lng": 9.18 },
      "context": "The Konzil von Konstanz was held here and it resolved the Western Schism by electing Pope Martin V."
    },
    {
      "question": "Identify the site in the United States known for its towering steel arch bridge, an iconic example of modern engineering completed in 1965 and recognized as a symbol of the city.",
      "answer": { "label": "Gateway Arch, St. Louis, Missouri", "lat": 38.63, "lng": -90.19 },
      "context": "Designed by Eero Saarinen, the Arch commemorates the westward expansion of the United States."
    },
    {
      "question": "This historical battle site in Belgium played a decisive role in ending the Napoleonic Wars in 1815 and is now a major tourist attraction.",
      "answer": { "label": "Waterloo Battlefield, Waterloo, Belgium", "lat": 50.68, "lng": 4.41 },
      "context": "The Battle of Waterloo marked the final defeat of French Emperor Napoleon Bonaparte by the Duke of Wellington and his allies."
    },
    {
      "question": "Which famous museum in the Netherlands is home to one of the world's greatest collections of works by the Dutch painter Vincent van Gogh?",
      "answer": { "label": "Van Gogh Museum, Amsterdam, Netherlands", "lat": 52.35, "lng": 4.88 },
      "context": "It houses the largest collection of Van Gogh's paintings and drawings, including 'The Starry Night' and 'Sunflowers'."
    },
    {
      "question": "Name the ancient ruins located in modern-day Jordan, known for its archaeological park featuring rock-cut architecture and was once a thriving trade center during the Roman Empire.",
      "answer": { "label": "Petra, Ma'an Governorate, Jordan", "lat": 30.32, "lng": 35.47 },
      "context": "Famous for its treasury (Al-Khazneh), Petra is also known for its intricate tombs and temples carved into pink sandstone."
    }
  ]
}