{
  "questions": [
    {
      "question": "Which modern architectural marvel was built in 2008 in Dubai and is known as the world's tallest building?",
      "answer": { "label": "Burj Khalifa, Dubai", "lat": 25.1972, "lng": 55.2744 },
      "context": "Designed by Adrian Smith, the Burj Khalifa stands at 828 meters and has over 160 stories."
    },
    {
      "question": "What is the UNESCO World Heritage Site located in Peru, known as the Lost City of the Incas?",
      "answer": { "label": "Machu Picchu, Peru", "lat": -13.1631, "lng": -72.5450 },
      "context": "Machu Picchu was built in the 15th century and was brought to international attention in 1911 by Hiram Bingham."
    },
    {
      "question": "In which museum, the largest art museum in the world, would you find the famous painting 'Mona Lisa'?",
      "answer": { "label": "Louvre Museum, Paris", "lat": 48.8606, "lng": 2.3376 },
      "context": "The Louvre was originally a royal palace and became a public museum in the French Revolution."
    },
    {
      "question": "What ancient ruin in Greece is an iconic symbol of Ancient Athens at the top of a hill in the city?",
      "answer": { "label": "Acropolis of Athens, Greece", "lat": 37.9715, "lng": 23.7257 },
      "context": "Known for its stunning architecture, including the Parthenon, the Acropolis dates back to the 5th century BC."
    },
    {
      "question": "Which capital city is home to the Blue Mosque, a historic Ottoman-era mosque known for its stunning blue tiles?",
      "answer": { "label": "Istanbul, Turkey", "lat": 41.0082, "lng": 28.9784 },
      "context": "Also known as Sultan Ahmed Mosque, it was completed in 1616 during the rule of Ahmed I."
    }
  ]
}