{
  "questions": [
    {
      "question": "What is the ancient ruin in Peru known for its sacred Inca city, built in the 15th century and rediscovered by Hiram Bingham in 1911?",
      "answer": { "label": "Machu Picchu, Peru", "lat": -13.1631, "lng": -72.545 },
      "context": "Located on a mountain ridge, this site is often mistakenly referred to as 'The Lost City of the Incas' and is one of the New Seven Wonders of the World."
    },
    {
      "question": "Where is the iconic ruin that stands in Greece, celebrated for its grand temple dedicated to the goddess Athena and completed in 432 BC?",
      "answer": { "label": "The Parthenon, Athens", "lat": 37.9715, "lng": 23.7267 },
      "context": "Part of the Acropolis, this ancient temple is symbolic of classical Greek architecture and once housed a massive statue of Athena crafted by Phidias."
    },
    {
      "question": "Which ancient city in Italy, famously destroyed by a volcanic eruption in AD 79, is preserved as an archaeological site providing insight into Roman life?",
      "answer": { "label": "Pompeii, Italy", "lat": 40.7465, "lng": 14.4947 },
      "context": "Buried under volcanic ash from Mount Vesuvius, the city's rediscovery in the 18th century offered snapshots of daily life frozen in time, including buildings, artifacts, and even bodies."
    },
    {
      "question": "Locate the ancient city in Turkey, believed to be the site of the legendary Trojan War, which is a central event in Homer's Iliad.",
      "answer": { "label": "Troy (Hisarlik), Turkey", "lat": 39.9579, "lng": 26.2383 },
      "context": "Excavations have uncovered multiple layers of settlements, and the city's famed 'Trojan Horse' is a symbol of cunning strategy used during wars."
    },
    {
      "question": "What is the ancient site in Jordan that's renowned for its rock-cut architecture and water conduit system, famously rediscovered in 1812 by Johann Ludwig Burckhardt?",
      "answer": { "label": "Petra, Jordan", "lat": 30.3285, "lng": 35.4444 },
      "context": "Known as the 'Rose City' due to the color of the stone, it was the capital of the Nabataean Kingdom and is featured in the movie 'Indiana Jones and the Last Crusade'."
    }
  ]
}