```json
{
  "questions": [
    {
      "question": "Which UNESCO site, located in a city famed for its iconic steel tower, commemorates the universal declaration of its quaint identity since 1991?",
      "answer": { "label": "Banks of the Seine, Paris", "lat": 48.8566, "lng": 2.3522 },
      "context": "Along this river stretch you'll find numerous historic bridges and architectural marvels like the Louvre and Notre-Dame."
    },
    {
      "question": "This historical battle site, known as the place where an emperor made a critical decision after a celestial vision, lies at the edge of a major European capital.",
      "answer": { "label": "Milvian Bridge, Rome", "lat": 41.939, "lng": 12.466 },
      "context": "Constantine the Great reportedly saw a sign in the sky before his critical victory here in 312 AD."
    },
    {
      "question": "Recognizable by its spiraling design, which modern architectural marvel in the United States serves as a key repository for contemporary and modern art?",
      "answer": { "label": "Solomon R. Guggenheim Museum, New York City", "lat": 40.783, "lng": -73.959 },
      "context": "Designed by Frank Lloyd Wright, this museum is located on the Upper East Side of Manhattan and was completed in 1959."
    },
    {
      "question": "What ancient ruin, once serving as the Cradle of Western Civilization, sits atop a city that has been inhabited for over 3,000 years?",
      "answer": { "label": "Acropolis of Athens, Athens", "lat": 37.9715, "lng": 23.7257 },
      "context": "This citadel contains the Parthenon and is dedicated to the goddess Athena."
    },
    {
      "question": "Famed as the birthplace of modern democracy, capital of a country known for its southern beaches, where is the parliament building located?",
      "answer": { "label": "Hellenic Parliament, Athens", "lat": 37.975, "lng": 23.7348 },
      "context": "Originally built as a royal palace, it overlooks Syntagma Square and has been home to the Hellenic Parliament since 1934."
    }
  ]
}
```