{
  "questions": [
    {
      "question": "Which modern architectural marvel in the United Arab Emirates is known for its innovative design that features a dramatic leaning exterior inspired by the rich culture of the country?",
      "answer": { "label": "Capital Gate, Abu Dhabi", "lat": 24.418, "lng": 54.4418 },
      "context": "This iconic skyscraper leans at an angle of 18 degrees and is also known as the 'Leaning Tower of Abu Dhabi,' showcasing the city's modern architectural achievements."
    },
    {
      "question": "Where is the renowned museum located that houses the famous 'Mona Lisa' painting, and which served as a royal palace before becoming a museum in 1793?",
      "answer": { "label": "The Louvre, Paris", "lat": 48.8606, "lng": 2.3376 },
      "context": "Situated in France, this museum is one of the largest and most visited in the world, with a collection that spans over 9,000 years of history."
    },
    {
      "question": "What is the site of an ancient Mesoamerican city in Mexico, known for its massive pyramids, including the Pyramid of the Sun, and its significant role as an Aztec pilgrimage destination?",
      "answer": { "label": "Teotihuacan, Mexico", "lat": 19.6925, "lng": -98.8439 },
      "context": "This archaeological site was once one of the largest cities in the ancient world and remains a symbol of ancient Mexican civilization."
    },
    {
      "question": "What is the location in the United States, synonymous with groundbreaking space exploration, and was the launch site for the first human moon landing mission in 1969?",
      "answer": { "label": "Kennedy Space Center, Florida", "lat": 28.5721, "lng": -80.648 },
      "context": "Located on Merritt Island, this facility is NASA's primary launch center of human spaceflight and played a crucial role during the Apollo missions."
    },
    {
      "question": "Which dark tourism site in Eastern Europe was once the site of a catastrophic nuclear disaster in 1986, resulting in widespread radiation contamination and evacuations?",
      "answer": { "label": "Chernobyl Exclusion Zone, Ukraine", "lat": 51.2761, "lng": 30.2219 },
      "context": "This area, now part of modern-day Ukraine, draws visitors interested in its eerie abandoned landscapes and the impactful history of the nuclear meltdown."
    }
  ]
}