{
  "questions": [
    {
      "question": "Which ancient ruin in South America is renowned for its terraced architecture and is situated in the Sacred Valley of the Incas?",
      "answer": { "label": "Machu Picchu, Peru", "lat": -13.1631, "lng": -72.5450 },
      "context": "Built in the 15th century and rediscovered in 1911, it’s one of the most iconic archaeological sites in the world, believed to have been an estate for the Inca emperor Pachacuti."
    },
    {
      "question": "Which famous museum located in a European capital was opened to the public in 1793 and has over 38,000 objects on display?",
      "answer": { "label": "Louvre Museum, Paris", "lat": 48.8606, "lng": 2.3376 },
      "context": "Originally constructed as a fortress in the late 12th century, it’s home to the Mona Lisa and the Venus de Milo."
    },
    {
      "question": "Which UNESCO site in Asia is famed for its coral reefs and marine biodiversity, attracting divers from around the world?",
      "answer": { "label": "Tubbataha Reefs Natural Park, Philippines", "lat": 8.9045, "lng": 119.8780 },
      "context": "Declared a UNESCO World Heritage Site in 1993, this atoll reef system is a sanctuary for marine life and a haven for conservation efforts."
    },
    {
      "question": "What historical battle site in Belgium saw a decisive battle in 1815 that marked the end of the Napoleonic Wars?",
      "answer": { "label": "Waterloo, Belgium", "lat": 50.6804, "lng": 4.4122 },
      "context": "The Battle of Waterloo was fought on June 18, 1815, where Napoleon Bonaparte was defeated by the Duke of Wellington and Gebhard Leberecht von Blücher."
    },
    {
      "question": "What modern architectural marvel in the Middle East features two iconic curved towers and opened in 2008 as a symbol of modern design?",
      "answer": { "label": "Aldar Headquarters Building, Abu Dhabi", "lat": 24.4676, "lng": 54.3953 },
      "context": "This building is the first circular skyscraper in the Middle East, known for its striking aesthetic and was awarded a LEED Silver certification for environmental sustainability."
    }
  ]
}