{
  "questions": [
    {
      "question": "Which UNESCO site in France, completed in 1889, was originally dismissed as an eyesore but is now celebrated as a symbol of modern engineering?",
      "answer": { "label": "Eiffel Tower, Paris", "lat": 48.8584, "lng": 2.2945 },
      "context": "This iron lattice tower, designed by Gustave Eiffel, stood as the world's tallest structure until 1930."
    },
    {
      "question": "Which ancient ruin in Greece, dedicated to the goddess Athena, began construction in 447 BC and remains a pinnacle of Classical architecture?",
      "answer": { "label": "Parthenon, Athens", "lat": 37.9715, "lng": 23.7267 },
      "context": "The Parthenon is a symbol of ancient Greek democracy and was severely damaged in an explosion in 1687."
    },
    {
      "question": "What is the site in Cambodia featuring the largest religious monument in the world that was originally constructed as a Hindu temple before transitioning into a Buddhist site?",
      "answer": { "label": "Angkor Wat, Siem Reap", "lat": 13.4125, "lng": 103.8670 },
      "context": "Built in the early 12th century, Angkor Wat is known for its grandeur and extensive bas-reliefs."
    },
    {
      "question": "Which historical site in Austria hosted a famous battle in 1809, where Napoleon's forces defeated the Austrians, marking a crucial point in the Napoleonic Wars?",
      "answer": { "label": "Battle of Wagram Site, Deutsch-Wagram", "lat": 48.3025, "lng": 16.5492 },
      "context": "The Battle of Wagram led to the Austrians agreeing to peace with France later that year."
    },
    {
      "question": "Which UNESCO World Heritage Site in India, renowned for its intricate Mughal architecture, was completed in 1653 in memory of the emperor's beloved wife?",
      "answer": { "label": "Taj Mahal, Agra", "lat": 27.1751, "lng": 78.0421 },
      "context": "Constructed with white marble, this mausoleum was built by Emperor Shah Jahan for Mumtaz Mahal."
    }
  ]
}