```json
{
  "questions": [
    {
      "question": "What famous museum in France is the largest art museum in the world and was once a royal palace before becoming a public museum after the French Revolution?",
      "answer": { "label": "Louvre Museum, Paris", "lat": 48.861, "lng": 2.336 },
      "context": "The museum is home to thousands of works of art, including the Mona Lisa and the Venus de Milo."
    },
    {
      "question": "Which ancient ruin located in Iraq was once the center of a powerful empire and features the famed ziggurat, part of the city's massive temple complexes?",
      "answer": { "label": "Ziggurat of Ur, Iraq", "lat": 30.9631, "lng": 46.1051 },
      "context": "This site is renowned for its connection to Sumerian civilization and the biblical figure Abraham is believed to have been born near this area."
    },
    {
      "question": "What is the launch site in Kazakhstan from which the first human in space, Yuri Gagarin, was sent into orbit on April 12, 1961?",
      "answer": { "label": "Baikonur Cosmodrome, Kazakhstan", "lat": 45.965, "lng": 63.305 },
      "context": "Baikonur continues to serve as a significant hub for international space missions, including those to the International Space Station."
    },
    {
      "question": "Where is the UNESCO World Heritage Site that features a grand underground church complex in Ethiopia, carved from rock in the 12th century and renowned for its distinctive architecture?",
      "answer": { "label": "Lalibela, Ethiopia", "lat": 12.0306, "lng": 39.0474 },
      "context": "Lalibela is famous for its monolithic churches, which serve as a major pilgrimage site for Ethiopian Orthodox Christians."
    },
    {
      "question": "What historic location in Turkey is known for the legendary battle fought between Troy and Mycenaean Greece, famously described in the epic poems of Homer?",
      "answer": { "label": "Troy, Turkey", "lat": 39.9570, "lng": 26.2389 },
      "context": "The archaeological site of Troy provides valuable insights into ancient civilizations and the historicity of the Trojan War."
    }
  ]
}
```