{
  "questions": [
    {
      "question": "Which famous modernist building in North America, designed by architect Frank Lloyd Wright, is considered a masterpiece of organic architecture?",
      "answer": { "label": "Fallingwater, Pennsylvania", "lat": 39.9065, "lng": -79.4688 },
      "context": "Built in the 1930s, this house is distinctive for its cantilevered balconies and its integration into the natural waterfall over which it stands."
    },
    {
      "question": "Identify the site of a significant historical battle in Europe, where Napoleon faced his final defeat in June 1815.",
      "answer": { "label": "Waterloo Battlefield, Belgium", "lat": 50.6806, "lng": 4.4125 },
      "context": "This battle marked the end of Napoleonic Wars and ushered in a new era of relative peace in Europe."
    },
    {
      "question": "Which museum in Paris, known for its unusual architecture resembling a giant palace of pipes, houses one of the most diverse and extensive collections of modern art?",
      "answer": { "label": "Centre Pompidou, Paris", "lat": 48.8606, "lng": 2.3522 },
      "context": "Opened in 1977, this institution is famous for its high-tech architectural style and is a hub of cultural activities."
    },
    {
      "question": "Where would you find the remnants of the Minoan civilization preserved in a Bronze Age archaeological site on the island of Crete?",
      "answer": { "label": "Knossos Palace, Crete", "lat": 35.2983, "lng": 25.1633 },
      "context": "Excavated in the early 20th century, this site is considered Europe's oldest city, centered around a grand palace complex."
    },
    {
      "question": "Which city is home to NASA's Johnson Space Center, a pivotal site for human spaceflight, where mission control for the U.S. space expeditions is located?",
      "answer": { "label": "Houston, Texas", "lat": 29.5502, "lng": -95.097 },
      "context": "Famous for the phrase 'Houston, we have a problem,' this center was established in 1961 and has been crucial for all Apollo, Skylab, and Space Shuttle missions."
    }
  ]
}