{
  "questions": [
    {
      "question": "Which UNESCO site in South America is renowned as a lost city of the Incas and rediscovered in 1911?",
      "answer": { "label": "Machu Picchu, Peru", "lat": -13.1631, "lng": -72.5450 },
      "context": "Situated on a mountain ridge above the Sacred Valley, it is one of the most familiar symbols of Inca civilization."
    },
    {
      "question": "Which UNESCO World Heritage Site in the Middle East is famous for its rock-cut architecture and water conduit system?",
      "answer": { "label": "Petra, Jordan", "lat": 30.3285, "lng": 35.4444 },
      "context": "This archaeological city, dating back to the 4th century BC, was the capital of the Nabataean Kingdom."
    },
    {
      "question": "Which iconic UNESCO site in Asia was originally constructed in the 7th century and later expanded to become the largest religious monument in the world?",
      "answer": { "label": "Angkor Wat, Cambodia", "lat": 13.4125, "lng": 103.8670 },
      "context": "Built initially as a Hindu temple dedicated to Vishnu, it later transformed into a Buddhist temple in the late 12th century."
    },
    {
      "question": "Which UNESCO World Heritage Site in Europe is known for its cave paintings, estimated to be more than 17,000 years old?",
      "answer": { "label": "Lascaux Cave, France", "lat": 45.0521, "lng": 1.1665 },
      "context": "Discovered in 1940, this site contains some of the best-known Upper Paleolithic art."
    },
    {
      "question": "Which UNESCO site in the heart of Africa is famed for its vast array of unique wildlife and crater landscape?",
      "answer": { "label": "Ngorongoro Conservation Area, Tanzania", "lat": -3.2026, "lng": 35.4778 },
      "context": "Formed millions of years ago from a large volcanic explosion, this site is a haven for elephants, lions, and the black rhino."
    }
  ]
}