{
  "questions": [
    {
      "question": "Which UNESCO World Heritage site in the Middle East was once the center of a prosperous Nabataean kingdom and is famously carved into rose-red sandstone cliffs?",
      "answer": { "label": "Petra, Jordan", "lat": 30.33, "lng": 35.44 },
      "context": "Known as the 'Rose City', it became a critical trading hub around the 4th century BC."
    },
    {
      "question": "Which modern architectural marvel, completed in 2004 and resembling a sparkling sail, stands in a major Catalan city known for its rich artistic history?",
      "answer": { "label": "W Barcelona Hotel, Spain", "lat": 41.37, "lng": 2.19 },
      "context": "Designed by renowned architect Ricardo Bofill, it's located on the famous Barceloneta beach."
    },
    {
      "question": "What historical battle site in Europe marked a decisive end to Napoleon's rule in 1815?",
      "answer": { "label": "Waterloo, Belgium", "lat": 50.68, "lng": 4.41 },
      "context": "It's the site where the Duke of Wellington secured a pivotal victory along with Prussian allies."
    },
    {
      "question": "Which famous museum in Paris houses the world's largest collection of pre-20th-century paintings and is known for its iconic glass pyramid entrance?",
      "answer": { "label": "Louvre Museum, Paris", "lat": 48.86, "lng": 2.33 },
      "context": "Originally a royal palace, it became a public museum during the French Revolution."
    },
    {
      "question": "Which ancient ruin in Southeast Asia is the largest religious monument in the world, originally built as a Hindu temple before becoming a Buddhist site?",
      "answer": { "label": "Angkor Wat, Cambodia", "lat": 13.41, "lng": 103.87 },
      "context": "Constructed in the early 12th century, it's part of the Angkor Archaeological Park."
    }
  ]
}