{
  "questions": [
    {
      "question": "Which ancient ruin, known as the birthplace of democracy and located in the city that hosted the first modern Olympic Games in 1896, is a UNESCO World Heritage Site in Europe?",
      "answer": { "label": "Acropolis of Athens, Greece", "lat": 37.9715, "lng": 23.7257 },
      "context": "This site includes the Parthenon and is a symbol of the cultural and political achievements of Classical Greece."
    },
    {
      "question": "Which modern architectural wonder, located in the largest city in India and inaugurated in 2003, is known for its Bahá'í faith affiliation?",
      "answer": { "label": "Lotus Temple, New Delhi, India", "lat": 28.5535, "lng": 77.2588 },
      "context": "The temple's distinctive lotus shape makes it a popular tourist attraction and a symbol of harmony."
    },
    {
      "question": "Which famous museum, home to the 'Mona Lisa', was a royal palace before becoming one of the world's largest art museums, located in a city known as the 'City of Light'?",
      "answer": { "label": "Louvre Museum, Paris, France", "lat": 48.8606, "lng": 2.3376 },
      "context": "The museum's iconic glass pyramid entrance opened in 1989, drastically transforming its appearance."
    },
    {
      "question": "Which historical site, known for its role in the start of the Battle of Hastings in 1066, houses the ruins of a once-great abbey in the British Isles?",
      "answer": { "label": "Battle Abbey, Battle, England", "lat": 50.9141, "lng": 0.4906 },
      "context": "The abbey was built on the site where King Harold is said to have fallen, marking the end of Anglo-Saxon rule."
    },
    {
      "question": "Which capital city, known for its canals and gabled houses, has served as the hub of a significant empire during the 17th century's 'Golden Age' in Europe?",
      "answer": { "label": "Amsterdam, Netherlands", "lat": 52.3676, "lng": 4.9041 },
      "context": "The city's prominent district, The Jordaan, is known for its narrow streets and lively artistic history."
    }
  ]
}