{
  "questions": [
    {
      "question": "Which UNESCO World Heritage Site in the Czech Republic is known for its well-preserved medieval town center and was founded in 1233 by the noble family of Lords of Künring?",
      "answer": { "label": "Cesky Krumlov, Czech Republic", "lat": 48.81, "lng": 14.32 },
      "context": "This town is a prime example of a European medieval town and features a Renaissance castle built around a 1240 Gothic fortress."
    },
    {
      "question": "Where in Japan would you find an ancient castle UNESCO site renowned for its well-preserved Edo-era samurai quarters?",
      "answer": { "label": "Himeji Castle, Japan", "lat": 34.84, "lng": 134.69 },
      "context": "This hilltop castle complex is considered the finest surviving example of early 17th-century Japanese castle architecture."
    },
    {
      "question": "This UNESCO location in Peru is a fortress of massive dry stone walls at an altitude of 3,000 meters. It once played a role in the siege against Spanish invaders.",
      "answer": { "label": "Sacsayhuamán, Peru", "lat": -13.51, "lng": -71.98 },
      "context": "The complex is part of the historic capital of the Incan Empire and provides spectacular views over the city."
    },
    {
      "question": "Which UNESCO World Heritage city in Malta is known as the 'silent city' and served as the island's capital from antiquity through the medieval period?",
      "answer": { "label": "Mdina, Malta", "lat": 35.89, "lng": 14.41 },
      "context": "This fortified city is famed for its mixture of medieval and Baroque architecture and its serene atmosphere is a draw for many tourists."
    },
    {
      "question": "What is the location of the site in Jordan that features intricate rock-cut architecture and was the capital of the Nabataean Kingdom?",
      "answer": { "label": "Petra, Jordan", "lat": 30.32, "lng": 35.48 },
      "context": "This archaeological site is often referred to as the 'Rose City' for the color of the stone from which it is carved."
    }
  ]
}