{
  "questions": [
    {
      "question": "Which modern architectural marvel, completed in 2010, is known as the tallest building in the world and features an impressive 163 floors?",
      "answer": { "label": "Burj Khalifa, Dubai, UAE", "lat": 25.1972, "lng": 55.2744 },
      "context": "This skyscraper stands at 828 meters tall and its design mimics the three-petal Hymenocallis flower, prominent in UAE gardens."
    },
    {
      "question": "Which historical battle site, a UNESCO World Heritage location in the United Kingdom, witnessed the end of Roman Britain during the 5th century and features a renowned Roman villa?",
      "answer": { "label": "Chedworth Roman Villa, Gloucestershire, UK", "lat": 51.8253, "lng": -1.9729 },
      "context": "The site is celebrated for its Roman mosaics and baths, marking the luxurious villas that dotted the declining Roman Empire's lands."
    },
    {
      "question": "This famous museum, located in Europe and founded in the 18th century, holds over 8 million works, including the Elgin Marbles and the Rosetta Stone. Where is it situated?",
      "answer": { "label": "The British Museum, London, UK", "lat": 51.5194, "lng": -0.1270 },
      "context": "Known for its vast and varied collection of art and artifacts, this museum attracts over 6 million visitors annually."
    },
    {
      "question": "What ancient ruins, found in South America and built by the Inca civilization around the 15th century, are known for their sophisticated dry-stone construction?",
      "answer": { "label": "Machu Picchu, Peru", "lat": -13.1631, "lng": -72.5450 },
      "context": "Rediscovered in 1911, these ruins are perched high in the Andes and exemplify Incan engineering and architecture."
    },
    {
      "question": "Which space exploration site, located in Asia, became famous as the launch site for the first human in space, Yuri Gagarin, in 1961?",
      "answer": { "label": "Baikonur Cosmodrome, Kazakhstan", "lat": 45.9203, "lng": 63.3426 },
      "context": "This site remains operational and is essential for International Space Station missions, symbolizing early space race achievements."
    }
  ]
}